$GPGGA,155531.000,4516.4148,N,07552.3011,W,2,06,1.6,100.0,M,-34.3,M,4.0,0000*41
$GPGSA,M,3,28,31,32,03,26,04,,,,,,,2.4,1.6,1.8*3C
$GPRMC,155531.000,A,4516.4148,N,07552.3011,W,0.00,61.59,201223,,,D*4D
$GPGGA,155532.000,4516.4148,N,07552.3011,W,2,06,1.6,100.0,M,-34.3,M,5.0,0000*43
$GPGSA,M,3,28,31,32,03,26,04,,,,,,,2.4,1.6,1.8*3C
$GPRMC,155532.000,A,4516.4148,N,07552.3011,W,0.00,61.59,201223,,,D*4E
$GPGGA,155533.000,4516.4148,N,07552.3011,W,2,06,1.6,100.0,M,-34.3,M,2.0,0000*45
$GPGSA,M,3,28,31,32,03,26,04,,,,,,,2.4,1.6,1.8*3C
$GPGSV,3,1,12,28,76,025,44,31,70,272,46,32,46,113,48,03,38,301,48*7E
$GPGSV,3,2,12,26,35,191,44,04,06,298,38,01,08,261,34,10,05,167,22*75
$GPGSV,3,3,12,12,03,034,27,48,19,238,42,14,56,102,,25,40,181,*7D
$GPRMC,155533.000,A,4516.4148,N,07552.3011,W,0.00,61.59,201223,,,D*4F
$GPGGA,155534.000,4516.4148,N,07552.3011,W,2,06,1.6,100.0,M,-34.3,M,2.0,0000*42
$GPGSA,M,3,28,31,32,03,26,04,,,,,,,2.4,1.6,1.8*3C
$GPRMC,155534.000,A,4516.4148,N,07552.3011,W,0.00,61.59,201223,,,D*48
$GPGGA,155535.000,4516.4148,N,07552.3011,W,2,06,1.6,100.0,M,-34.3,M,2.0,0000*43
$GPGSA,M,3,28,31,32,03,26,04,,,,,,,2.4,1.6,1.8*3C
$GPRMC,155535.000,A,4516.4148,N,07552.3011,W,0.00,61.59,201223,,,D*49
$GPGGA,155536.000,4516.4148,N,07552.3011,W,2,06,1.6,100.0,M,-34.3,M,3.0,0000*41
$GPGSA,M,3,28,31,32,03,26,04,,,,,,,2.4,1.6,1.8*3C
$GPRMC,155536.000,A,4516.4148,N,07552.3011,W,0.00,61.59,201223,,,D*4A
$GPGGA,155537.000,4516.4148,N,07552.3011,W,2,06,1.6,100.0,M,-34.3,M,4.0,0000*47
$GPGSA,M,3,28,31,32,03,26,04,,,,,,,2.4,1.6,1.8*3C
$GPRMC,155537.000,A,4516.4148,N,07552.3011,W,0.00,61.59,201223,,,D*4B
$GPGGA,155538.000,4516.4148,N,07552.3011,W,2,06,1.6,100.0,M,-34.3,M,2.0,0000*4E
$GPGSA,M,3,28,31,32,03,26,04,,,,,,,2.4,1.6,1.8*3C
$GPGSV,3,1,12,28,75,028,45,31,71,275,46,32,45,114,48,03,39,300,48*73
$GPGSV,3,2,12,26,36,191,44,04,08,299,39,01,07,260,34,10,03,167,22*70
$GPGSV,3,3,12,12,02,034,30,48,19,238,42,14,55,103,,25,42,181,*7A
$GPRMC,155538.000,A,4516.4148,N,07552.3011,W,0.00,61.59,201223,,,D*44
$GPGGA,155539.000,4516.4148,N,07552.3011,W,2,06,1.6,100.0,M,-34.3,M,2.0,0000*4F
$GPGSA,M,3,28,31,32,03,26,04,,,,,,,2.4,1.6,1.8*3C
$GPRMC,155539.000,A,4516.4148,N,07552.3011,W,0.00,61.59,201223,,,D*45
$GPGGA,155540.000,4516.4148,N,07552.3011,W,2,06,1.6,100.0,M,-34.3,M,2.0,0000*41
$GPGSA,M,3,28,31,32,03,26,04,,,,,,,2.4,1.6,1.8*3C
$GPRMC,155540.000,A,4516.4148,N,07552.3011,W,0.00,61.59,201223,,,D*4B
$GPGGA,155541.000,4516.4148,N,07552.3011,W,2,06,1.6,100.0,M,-34.3,M,2.0,0000*40
$GPGSA,M,3,28,31,32,03,26,04,,,,,,,2.4,1.6,1.8*3C
$GPRMC,155541.000,A,4516.4148,N,07552.3011,W,0.00,61.59,201223,,,D*4A
$GPGGA,155542.000,4516.4148,N,07552.3011,W,2,06,1.6,100.0,M,-34.3,M,3.0,0000*42
$GPGSA,M,3,28,31,32,03,26,04,,,,,,,2.4,1.6,1.8*3C
$GPRMC,155542.000,A,4516.4148,N,07552.3011,W,0.00,61.59,201223,,,D*49
$GPGGA,155543.000,4516.4148,N,07552.3011,W,2,06,1.6,100.0,M,-34.3,M,2.0,0000*42
$GPGSA,M,3,28,31,32,03,26,04,,,,,,,2.4,1.6,1.8*3C
$GPGSV,3,1,12,28,75,028,45,31,71,275,46,32,45,114,48,03,39,300,48*73
$GPGSV,3,2,12,26,36,191,44,04,08,299,38,01,07,260,34,10,03,167,21*72
$GPGSV,3,3,12,12,02,034,31,48,19,238,41,14,55,103,,25,42,181,*78
$GPRMC,155543.000,A,4516.4148,N,07552.3011,W,0.00,61.59,201223,,,D*48
$GPGGA,155544.000,4516.4148,N,07552.3011,W,2,06,1.6,100.0,M,-34.3,M,2.0,0000*45
$GPGSA,M,3,28,31,32,03,26,04,,,,,,,2.4,1.6,1.8*3C
$GPRMC,155544.000,A,4516.4148,N,07552.3011,W,0.00,61.59,201223,,,D*4F
$GPGGA,155545.000,4516.4148,N,07552.3011,W,2,06,1.6,100.0,M,-34.3,M,2.0,0000*44
$GPGSA,M,3,28,31,32,03,26,04,,,,,,,2.4,1.6,1.8*3C
$GPRMC,155545.000,A,4516.4148,N,07552.3011,W,0.00,61.59,201223,,,D*4E
$GPGGA,155546.000,4516.4148,N,07552.3011,W,2,06,1.6,100.0,M,-34.3,M,2.0,0000*47
$GPGSA,M,3,28,31,32,03,26,04,,,,,,,2.4,1.6,1.8*3C
$GPRMC,155546.000,A,4516.4148,N,07552.3011,W,0.00,61.59,201223,,,D*4D
$GPGGA,155547.000,4516.4148,N,07552.3011,W,2,06,1.6,100.0,M,-34.3,M,2.0,0000*46
$GPGSA,M,3,28,31,32,03,26,04,,,,,,,2.4,1.6,1.8*3C
$GPRMC,155547.000,A,4516.4148,N,07552.3011,W,0.00,61.59,201223,,,D*4C
$GPGGA,155548.000,4516.4148,N,07552.3011,W,2,06,1.6,100.0,M,-34.3,M,3.0,0000*48
$GPGSA,M,3,28,31,32,03,26,04,,,,,,,2.4,1.6,1.8*3C
$GPGSV,3,1,12,28,75,028,45,31,71,275,46,32,45,114,48,03,39,300,48*73
$GPGSV,3,2,12,26,36,191,44,04,08,299,38,01,07,260,34,10,03,167,21*72
$GPGSV,3,3,12,12,02,034,31,48,19,238,41,14,55,103,,25,42,181,*78
$GPRMC,155548.000,A,4516.4148,N,07552.3011,W,0.00,61.59,201223,,,D*43
$GPGGA,155549.000,4516.4148,N,07552.3011,W,2,06,1.6,100.0,M,-34.3,M,4.0,0000*4E
$GPGSA,M,3,28,31,32,03,26,04,,,,,,,2.4,1.6,1.8*3C
$GPRMC,155549.000,A,4516.4148,N,07552.3011,W,0.00,61.59,201223,,,D*42
$GPGGA,155550.000,4516.4148,N,07552.3011,W,2,06,1.6,100.0,M,-34.3,M,2.0,0000*40
$GPGSA,M,3,28,31,32,03,26,04,,,,,,,2.4,1.6,1.8*3C
$GPRMC,155550.000,A,4516.4148,N,07552.3011,W,0.00,61.59,201223,,,D*4A
$GPGGA,155551.000,4516.4148,N,07552.3011,W,2,06,1.6,100.0,M,-34.3,M,2.0,0000*41
$GPGSA,M,3,28,31,32,03,26,04,,,,,,,2.4,1.6,1.8*3C
$GPRMC,155551.000,A,4516.4148,N,07552.3011,W,0.00,61.59,201223,,,D*4B
$GPGGA,155552.000,4516.4148,N,07552.3011,W,2,06,1.6,100.0,M,-34.3,M,2.0,0000*42
$GPGSA,M,3,28,31,32,03,26,04,,,,,,,2.4,1.6,1.8*3C
$GPRMC,155552.000,A,4516.4148,N,07552.3011,W,0.00,61.59,201223,,,D*48
$GPGGA,155553.000,4516.4148,N,07552.3011,W,2,06,1.6,100.0,M,-34.3,M,2.0,0000*43
$GPGSA,M,3,28,31,32,03,26,04,,,,,,,2.4,1.6,1.8*3C
$GPGSV,3,1,12,28,75,028,45,31,71,275,46,32,45,114,47,03,39,300,48*7C
$GPGSV,3,2,12,26,36,191,43,04,08,299,38,01,07,260,34,10,03,167,20*74
$GPGSV,3,3,12,12,02,034,30,48,19,238,41,14,55,103,,25,42,181,*79
$GPRMC,155553.000,A,4516.4148,N,07552.3011,W,0.00,61.59,201223,,,D*49
$GPGGA,155554.000,4516.4148,N,07552.3011,W,2,06,1.6,100.0,M,-34.3,M,2.0,0000*44
$GPGSA,M,3,28,31,32,03,26,04,,,,,,,2.4,1.6,1.8*3C
$GPRMC,155554.000,A,4516.4148,N,07552.3011,W,0.00,61.59,201223,,,D*4E
$GPGGA,155555.000,4516.4148,N,07552.3011,W,2,06,1.6,100.0,M,-34.3,M,2.0,0000*45
$GPGSA,M,3,28,31,32,03,26,04,,,,,,,2.4,1.6,1.8*3C
$GPRMC,155555.000,A,4516.4148,N,07552.3011,W,0.00,61.59,201223,,,D*4F
$GPGGA,155556.000,4516.4148,N,07552.3011,W,2,06,1.6,100.0,M,-34.3,M,3.0,0000*47
$GPGSA,M,3,28,31,32,03,26,04,,,,,,,2.4,1.6,1.8*3C
$GPRMC,155556.000,A,4516.4148,N,07552.3011,W,0.00,61.59,201223,,,D*4C
$GPGGA,155557.000,4516.4148,N,07552.3011,W,2,06,1.6,100.0,M,-34.3,M,2.0,0000*47
$GPGSA,M,3,28,31,32,03,26,04,,,,,,,2.4,1.6,1.8*3C
$GPRMC,155557.000,A,4516.4148,N,07552.3011,W,0.00,61.59,201223,,,D*4D
$GPGGA,155558.000,4516.4148,N,07552.3011,W,2,06,1.6,100.0,M,-34.3,M,2.0,0000*48
$GPGSA,M,3,28,31,32,03,26,04,,,,,,,2.4,1.6,1.8*3C
$GPGSV,3,1,12,28,75,028,45,31,71,275,46,32,45,114,47,03,39,300,48*7C
$GPGSV,3,2,12,26,36,191,43,04,08,299,38,01,07,260,34,10,03,167,19*7E
$GPGSV,3,3,12,12,02,034,30,48,19,238,41,14,55,103,,25,42,181,*79
$GPRMC,155558.000,A,4516.4148,N,07552.3011,W,0.00,61.59,201223,,,D*42
$GPGGA,155559.000,4516.4148,N,07552.3011,W,2,06,1.6,100.0,M,-34.3,M,2.0,0000*49
$GPGSA,M,3,28,31,32,03,26,04,,,,,,,2.4,1.6,1.8*3C
$GPRMC,155559.000,A,4516.4148,N,07552.3011,W,0.00,61.59,201223,,,D*43
$GPGGA,155600.000,4516.4148,N,07552.3011,W,2,06,1.6,100.0,M,-34.3,M,3.0,0000*47
$GPGSA,M,3,28,31,32,03,26,04,,,,,,,2.4,1.6,1.8*3C
$GPRMC,155600.000,A,4516.4148,N,07552.3011,W,0.00,61.59,201223,,,D*4C
$GPGGA,155601.000,4516.4148,N,07552.3011,W,2,06,1.6,100.0,M,-34.3,M,4.0,0000*41
$GPGSA,M,3,28,31,32,03,26,04,,,,,,,2.4,1.6,1.8*3C
$GPRMC,155601.000,A,4516.4148,N,07552.3011,W,0.00,61.59,201223,,,D*4D
$GPGGA,155602.000,4516.4148,N,07552.3011,W,2,06,1.6,100.0,M,-34.3,M,5.0,0000*43
$GPGSA,M,3,28,31,32,03,26,04,,,,,,,2.4,1.6,1.8*3C
$GPRMC,155602.000,A,4516.4148,N,07552.3011,W,0.00,61.59,201223,,,D*4E
$GPGGA,155603.000,4516.4148,N,07552.3011,W,2,06,1.6,100.0,M,-34.3,M,2.0,0000*45
$GPGSA,M,3,28,31,32,03,26,04,,,,,,,2.4,1.6,1.8*3C
$GPGSV,3,1,12,28,75,028,45,31,71,275,46,32,45,114,47,03,39,300,48*7C
$GPGSV,3,2,12,26,36,191,43,04,08,299,39,01,07,260,34,10,03,167,19*7F
$GPGSV,3,3,12,12,02,034,30,48,19,238,41,14,55,103,,25,42,181,*79
$GPRMC,155603.000,A,4516.4148,N,07552.3011,W,0.00,61.59,201223,,,D*4F
$GPGGA,155604.000,4516.4148,N,07552.3011,W,2,06,1.6,100.0,M,-34.3,M,2.0,0000*42
$GPGSA,M,3,28,31,32,03,26,04,,,,,,,2.4,1.6,1.8*3C
$GPRMC,155604.000,A,4516.4148,N,07552.3011,W,0.00,61.59,201223,,,D*48
$GPGGA,155605.000,4516.4148,N,07552.3011,W,2,06,1.6,100.0,M,-34.3,M,2.0,0000*43
$GPGSA,M,3,28,31,32,03,26,04,,,,,,,2.4,1.6,1.8*3C
$GPRMC,155605.000,A,4516.4148,N,07552.3011,W,0.00,61.59,201223,,,D*49
$GPGGA,155606.000,4516.4148,N,07552.3011,W,2,06,1.6,100.0,M,-34.3,M,3.0,0000*41
$GPGSA,M,3,28,31,32,03,26,04,,,,,,,2.4,1.6,1.8*3C
$GPRMC,155606.000,A,4516.4148,N,07552.3011,W,0.00,61.59,201223,,,D*4A
$GPGGA,155607.000,4516.4148,N,07552.3011,W,2,06,1.6,100.0,M,-34.3,M,4.0,0000*47
$GPGSA,M,3,28,31,32,03,26,04,,,,,,,2.4,1.6,1.8*3C
$GPRMC,155607.000,A,4516.4148,N,07552.3011,W,0.00,61.59,201223,,,D*4B
$GPGGA,155608.000,4516.4148,N,07552.3011,W,2,06,1.6,100.0,M,-34.3,M,5.0,0000*49
$GPGSA,M,3,28,31,32,03,26,04,,,,,,,2.4,1.6,1.8*3C
$GPGSV,3,1,12,28,75,028,45,31,71,275,46,32,45,114,47,03,39,300,48*7C
$GPGSV,3,2,12,26,36,191,43,04,08,299,39,01,07,260,34,10,03,167,17*71
$GPGSV,3,3,12,12,02,034,30,48,19,238,42,14,55,103,,25,42,181,*7A
$GPRMC,155608.000,A,4516.4148,N,07552.3011,W,0.00,61.59,201223,,,D*44
$GPGGA,155609.000,4516.4148,N,07552.3011,W,2,06,1.6,100.0,M,-34.3,M,2.0,0000*4F
$GPGSA,M,3,28,31,32,03,26,04,,,,,,,2.4,1.6,1.8*3C
$GPRMC,155609.000,A,4516.4148,N,07552.3011,W,0.00,61.59,201223,,,D*45
$GPGGA,155610.000,4516.4148,N,07552.3011,W,2,06,1.6,100.0,M,-34.3,M,2.0,0000*47
$GPGSA,M,3,28,31,32,03,26,04,,,,,,,2.4,1.6,1.8*3C
$GPRMC,155610.000,A,4516.4148,N,07552.3011,W,0.00,61.59,201223,,,D*4D
$GPGGA,155611.000,4516.4148,N,07552.3011,W,2,06,1.6,100.0,M,-34.3,M,2.0,0000*46
$GPGSA,M,3,28,31,32,03,26,04,,,,,,,2.4,1.6,1.8*3C
$GPRMC,155611.000,A,4516.4148,N,07552.3011,W,0.00,61.59,201223,,,D*4C
$GPGGA,155612.000,4516.4148,N,07552.3011,W,2,06,1.6,100.0,M,-34.3,M,3.0,0000*44
$GPGSA,M,3,28,31,32,03,26,04,,,,,,,2.4,1.6,1.8*3C
$GPRMC,155612.000,A,4516.4148,N,07552.3011,W,0.00,61.59,201223,,,D*4F
$GPGGA,155613.000,4516.4148,N,07552.3011,W,2,06,1.6,100.0,M,-34.3,M,4.0,0000*42
$GPGSA,M,3,28,31,32,03,26,04,,,,,,,2.4,1.6,1.8*3C
$GPGSV,3,1,12,28,75,028,45,31,71,275,47,32,45,114,48,03,39,300,48*72
$GPGSV,3,2,12,26,36,191,43,04,08,299,40,01,07,260,35,10,03,167,16*7F
$GPGSV,3,3,12,12,02,034,22,48,19,238,42,14,55,103,,25,42,181,*79
$GPRMC,155613.000,A,4516.4148,N,07552.3011,W,0.00,61.59,201223,,,D*4E
$GPGGA,155614.000,4516.4148,N,07552.3011,W,2,06,1.6,100.0,M,-34.3,M,5.0,0000*44
$GPGSA,M,3,28,31,32,03,26,04,,,,,,,2.4,1.6,1.8*3C
$GPRMC,155614.000,A,4516.4148,N,07552.3011,W,0.00,61.59,201223,,,D*49
$GPGGA,155615.000,4516.4148,N,07552.3011,W,2,06,1.6,100.0,M,-34.3,M,2.0,0000*42
$GPGSA,M,3,28,31,32,03,26,04,,,,,,,2.4,1.6,1.8*3C
$GPRMC,155615.000,A,4516.4148,N,07552.3011,W,0.00,61.59,201223,,,D*48
$GPGGA,155616.000,4516.4148,N,07552.3011,W,2,06,1.6,100.0,M,-34.3,M,2.0,0000*41
$GPGSA,M,3,28,31,32,03,26,04,,,,,,,2.4,1.6,1.8*3C
$GPRMC,155616.000,A,4516.4148,N,07552.3011,W,0.00,61.59,201223,,,D*4B
$GPGGA,155617.000,4516.4148,N,07552.3011,W,2,06,1.6,100.0,M,-34.3,M,2.0,0000*40
$GPGSA,M,3,28,31,32,03,26,04,,,,,,,2.4,1.6,1.8*3C
$GPRMC,155617.000,A,4516.4148,N,07552.3011,W,0.00,61.59,201223,,,D*4A
$GPGGA,155618.000,4516.4148,N,07552.3011,W,2,06,1.6,100.0,M,-34.3,M,3.0,0000*4E
$GPGSA,M,3,28,31,32,03,26,04,,,,,,,2.4,1.6,1.8*3C
$GPGSV,3,1,12,28,75,028,45,31,71,275,46,32,45,114,48,03,39,300,48*73
$GPGSV,3,2,12,26,36,191,43,04,08,299,41,01,07,260,36,10,03,167,17*7C
$GPGSV,3,3,12,12,02,034,24,48,19,238,42,14,55,103,,25,42,181,*7F
$GPRMC,155618.000,A,4516.4148,N,07552.3011,W,0.00,61.59,201223,,,D*45
$GPGGA,155619.000,4516.4148,N,07552.3011,W,2,06,1.6,100.0,M,-34.3,M,4.0,0000*48
$GPGSA,M,3,28,31,32,03,26,04,,,,,,,2.4,1.6,1.8*3C
$GPRMC,155619.000,A,4516.4148,N,07552.3011,W,0.00,61.59,201223,,,D*44
$GPGGA,155620.000,4516.4148,N,07552.3011,W,2,06,1.6,100.0,M,-34.3,M,5.0,0000*43
$GPGSA,M,3,28,31,32,03,26,04,,,,,,,2.4,1.6,1.8*3C
$GPRMC,155620.000,A,4516.4148,N,07552.3011,W,0.00,61.59,201223,,,D*4E
$GPGGA,155621.000,4516.4148,N,07552.3011,W,2,06,1.6,100.0,M,-34.3,M,2.0,0000*45
$GPGSA,M,3,28,31,32,03,26,04,,,,,,,2.4,1.6,1.8*3C
$GPRMC,155621.000,A,4516.4148,N,07552.3011,W,0.00,61.59,201223,,,D*4F
$GPGGA,155622.000,4516.4148,N,07552.3011,W,2,06,1.6,100.0,M,-34.3,M,2.0,0000*46
$GPGSA,M,3,28,31,32,03,26,04,,,,,,,2.4,1.6,1.8*3C
$GPRMC,155622.000,A,4516.4148,N,07552.3011,W,0.00,61.59,201223,,,D*4C
$GPGGA,155623.000,4516.4148,N,07552.3011,W,2,06,1.6,100.0,M,-34.3,M,2.0,0000*47
$GPGSA,M,3,28,31,32,03,26,04,,,,,,,2.4,1.6,1.8*3C
$GPGSV,3,1,12,28,75,028,45,31,71,275,46,32,45,114,48,03,39,300,48*73
$GPGSV,3,2,12,26,36,191,43,04,08,299,41,01,07,260,36,10,03,167,18*73
$GPGSV,3,3,12,48,19,238,42,14,55,103,,25,42,181,,22,24,188,*78
$GPRMC,155623.000,A,4516.4148,N,07552.3011,W,0.00,61.59,201223,,,D*4D
$GPGGA,155624.000,4516.4149,N,07552.3012,W,2,06,1.6,100.0,M,-34.3,M,2.0,0000*42
$GPGSA,M,3,28,31,32,03,26,04,,,,,,,2.4,1.6,1.8*3C
$GPRMC,155624.000,A,4516.4149,N,07552.3012,W,0.00,61.59,201223,,,D*48
$GPGGA,155625.000,4516.4149,N,07552.3012,W,2,06,1.6,100.0,M,-34.3,M,2.0,0000*43
$GPGSA,M,3,28,31,32,03,26,04,,,,,,,2.4,1.6,1.8*3C
$GPRMC,155625.000,A,4516.4149,N,07552.3012,W,0.00,61.59,201223,,,D*49
$GPGGA,155626.000,4516.4149,N,07552.3012,W,2,06,1.6,99.9,M,-34.3,M,3.0,0000*79
$GPGSA,M,3,28,31,32,03,26,04,,,,,,,2.4,1.6,1.8*3C
$GPRMC,155626.000,A,4516.4149,N,07552.3012,W,0.00,61.59,201223,,,D*4A
$GPGGA,155627.000,4516.4149,N,07552.3012,W,2,06,1.6,99.9,M,-34.3,M,2.0,0000*79
$GPGSA,M,3,28,31,32,03,26,04,,,,,,,2.4,1.6,1.8*3C
$GPRMC,155627.000,A,4516.4149,N,07552.3012,W,0.00,61.59,201223,,,D*4B
$GPGGA,155628.000,4516.4149,N,07552.3012,W,2,06,1.6,99.9,M,-34.3,M,2.0,0000*76
$GPGSA,M,3,28,31,32,03,26,04,,,,,,,2.4,1.6,1.8*3C
$GPGSV,3,1,12,28,75,028,45,31,71,275,46,32,45,114,48,03,39,300,48*73
$GPGSV,3,2,12,26,36,191,43,04,08,299,42,01,07,260,36,10,03,167,19*71
$GPGSV,3,3,12,12,02,034,29,48,19,238,42,14,55,103,,25,42,181,*72
$GPRMC,155628.000,A,4516.4149,N,07552.3012,W,0.00,61.59,201223,,,D*44
$GPGGA,155629.000,4516.4149,N,07552.3012,W,2,06,1.6,99.9,M,-34.3,M,2.0,0000*77
$GPGSA,M,3,28,31,32,03,26,04,,,,,,,2.4,1.6,1.8*3C
$GPRMC,155629.000,A,4516.4149,N,07552.3012,W,0.00,61.59,201223,,,D*45
$GPGGA,155630.000,4516.4149,N,07552.3012,W,2,06,1.6,99.9,M,-34.3,M,3.0,0000*7E
$GPGSA,M,3,28,31,32,03,26,04,,,,,,,2.4,1.6,1.8*3C
$GPRMC,155630.000,A,4516.4149,N,07552.3012,W,0.00,61.59,201223,,,D*4D
$GPGGA,155631.000,4516.4149,N,07552.3012,W,2,06,1.6,99.9,M,-34.3,M,4.0,0000*78
$GPGSA,M,3,28,31,32,03,26,04,,,,,,,2.4,1.6,1.8*3C
$GPRMC,155631.000,A,4516.4149,N,07552.3012,W,0.00,61.59,201223,,,D*4C
$GPGGA,155632.000,4516.4149,N,07552.3012,W,2,06,1.6,99.9,M,-34.3,M,5.0,0000*7A
$GPGSA,M,3,28,31,32,03,26,04,,,,,,,2.4,1.6,1.8*3C
$GPRMC,155632.000,A,4516.4149,N,07552.3012,W,0.00,61.59,201223,,,D*4F
$GPGGA,155633.000,4516.4149,N,07552.3012,W,2,06,1.6,99.9,M,-34.3,M,2.0,0000*7C
$GPGSA,M,3,28,31,32,03,26,04,,,,,,,2.4,1.6,1.8*3C
$GPGSV,3,1,12,28,75,028,44,31,71,275,46,32,45,114,48,03,39,300,48*72
$GPGSV,3,2,12,26,36,191,43,04,08,299,42,01,07,260,37,10,03,167,20*7A
$GPGSV,3,3,12,12,02,034,27,48,19,238,42,14,55,103,,25,42,181,*7C
$GPRMC,155633.000,A,4516.4149,N,07552.3012,W,0.00,61.59,201223,,,D*4E
$GPGGA,155634.000,4516.4149,N,07552.3012,W,2,06,1.6,99.9,M,-34.3,M,2.0,0000*7B
$GPGSA,M,3,28,31,32,03,26,04,,,,,,,2.4,1.6,1.8*3C
$GPRMC,155634.000,A,4516.4149,N,07552.3012,W,0.00,61.59,201223,,,D*49
$GPGGA,155635.000,4516.4149,N,07552.3012,W,2,06,1.6,99.9,M,-34.3,M,2.0,0000*7A
$GPGSA,M,3,28,31,32,03,26,04,,,,,,,2.4,1.6,1.8*3C
$GPRMC,155635.000,A,4516.4149,N,07552.3012,W,0.00,61.59,201223,,,D*48
$GPGGA,155636.000,4516.4149,N,07552.3012,W,2,06,1.6,99.9,M,-34.3,M,3.0,0000*78
$GPGSA,M,3,28,31,32,03,26,04,,,,,,,2.4,1.6,1.8*3C
$GPRMC,155636.000,A,4516.4149,N,07552.3012,W,0.00,61.59,201223,,,D*4B
$GPGGA,155637.000,4516.4149,N,07552.3012,W,2,06,1.6,99.9,M,-34.3,M,4.0,0000*7E
$GPGSA,M,3,28,31,32,03,26,04,,,,,,,2.4,1.6,1.8*3C
$GPRMC,155637.000,A,4516.4149,N,07552.3012,W,0.00,61.59,201223,,,D*4A
$GPGGA,155638.000,4516.4149,N,07552.3012,W,2,06,1.6,99.9,M,-34.3,M,2.0,0000*77
$GPGSA,M,3,28,31,32,03,26,04,,,,,,,2.4,1.6,1.8*3C
$GPGSV,3,1,12,28,75,028,44,31,71,275,46,32,45,114,48,03,39,300,48*72
$GPGSV,3,2,12,26,36,191,42,04,08,299,42,01,07,260,38,10,03,167,20*74
$GPGSV,3,3,12,12,02,034,27,48,19,238,42,14,55,103,,25,42,181,*7C
$GPRMC,155638.000,A,4516.4149,N,07552.3012,W,0.00,61.59,201223,,,D*45
$GPGGA,155639.000,4516.4149,N,07552.3012,W,2,06,1.6,99.9,M,-34.3,M,2.0,0000*76
$GPGSA,M,3,28,31,32,03,26,04,,,,,,,2.4,1.6,1.8*3C
$GPRMC,155639.000,A,4516.4149,N,07552.3012,W,0.00,61.59,201223,,,D*44
$GPGGA,155640.000,4516.4149,N,07552.3012,W,2,06,1.6,99.9,M,-34.3,M,2.0,0000*78
$GPGSA,M,3,28,31,32,03,26,04,,,,,,,2.4,1.6,1.8*3C
$GPRMC,155640.000,A,4516.4149,N,07552.3012,W,0.00,61.59,201223,,,D*4A
$GPGGA,155641.000,4516.4149,N,07552.3012,W,2,06,1.6,99.9,M,-34.3,M,2.0,0000*79
$GPGSA,M,3,28,31,32,03,26,04,,,,,,,2.4,1.6,1.8*3C
$GPRMC,155641.000,A,4516.4149,N,07552.3012,W,0.00,61.59,201223,,,D*4B
$GPGGA,155642.000,4516.4149,N,07552.3012,W,2,06,1.6,99.9,M,-34.3,M,3.0,0000*7B
$GPGSA,M,3,28,31,32,03,26,04,,,,,,,2.4,1.6,1.8*3C
$GPRMC,155642.000,A,4516.4149,N,07552.3012,W,0.00,61.59,201223,,,D*48
$GPGGA,155643.000,4516.4149,N,07552.3012,W,2,06,1.6,99.9,M,-34.3,M,4.0,0000*7D
$GPGSA,M,3,28,31,32,03,26,04,,,,,,,2.4,1.6,1.8*3C
$GPGSV,3,1,12,28,75,028,44,31,71,275,46,32,45,114,49,03,39,300,48*73
$GPGSV,3,2,12,26,36,191,42,04,08,299,42,01,07,260,38,10,03,167,20*74
$GPGSV,3,3,12,12,02,034,33,48,19,238,41,14,55,103,,25,42,181,*7A
$GPRMC,155643.000,A,4516.4149,N,07552.3012,W,0.00,61.59,201223,,,D*49
$GPGGA,155644.000,4516.4149,N,07552.3012,W,2,06,1.6,99.9,M,-34.3,M,5.0,0000*7B
$GPGSA,M,3,28,31,32,03,26,04,,,,,,,2.4,1.6,1.8*3C
$GPRMC,155644.000,A,4516.4149,N,07552.3012,W,0.00,61.59,201223,,,D*4E
$GPGGA,155645.000,4516.4149,N,07552.3012,W,2,06,1.6,99.9,M,-34.3,M,2.0,0000*7D
$GPGSA,M,3,28,31,32,03,26,04,,,,,,,2.4,1.6,1.8*3C
$GPRMC,155645.000,A,4516.4149,N,07552.3012,W,0.00,61.59,201223,,,D*4F
$GPGGA,155646.000,4516.4149,N,07552.3012,W,2,06,1.6,99.9,M,-34.3,M,2.0,0000*7E
$GPGSA,M,3,28,31,32,03,26,04,,,,,,,2.4,1.6,1.8*3C
$GPRMC,155646.000,A,4516.4149,N,07552.3012,W,0.00,61.59,201223,,,D*4C
$GPGGA,155647.000,4516.4148,N,07552.3012,W,2,06,1.6,99.9,M,-34.3,M,2.0,0000*7E
$GPGSA,M,3,28,31,32,03,26,04,,,,,,,2.4,1.6,1.8*3C
$GPRMC,155647.000,A,4516.4148,N,07552.3012,W,0.00,61.59,201223,,,D*4C
$GPGGA,155648.000,4516.4148,N,07552.3012,W,2,06,1.6,99.9,M,-34.3,M,2.0,0000*71
$GPGSA,M,3,28,31,32,03,26,04,,,,,,,2.4,1.6,1.8*3C
$GPGSV,3,1,12,28,75,028,44,31,71,275,46,32,45,114,49,03,39,300,48*73
$GPGSV,3,2,12,26,36,191,42,04,08,299,42,01,07,260,38,10,03,167,20*74
$GPGSV,3,3,12,12,02,034,33,48,19,238,42,14,55,103,,25,42,181,*79
$GPRMC,155648.000,A,4516.4148,N,07552.3012,W,0.00,61.59,201223,,,D*43
$GPGGA,155649.000,4516.4148,N,07552.3012,W,2,06,1.6,99.9,M,-34.3,M,3.0,0000*71
$GPGSA,M,3,28,31,32,03,26,04,,,,,,,2.4,1.6,1.8*3C
$GPRMC,155649.000,A,4516.4148,N,07552.3012,W,0.00,61.59,201223,,,D*42
$GPGGA,155650.000,4516.4148,N,07552.3012,W,2,06,1.6,99.9,M,-34.3,M,4.0,0000*7E
$GPGSA,M,3,28,31,32,03,26,04,,,,,,,2.4,1.6,1.8*3C
$GPRMC,155650.000,A,4516.4148,N,07552.3012,W,0.00,61.59,201223,,,D*4A
$GPGGA,155651.000,4516.4148,N,07552.3012,W,2,06,1.6,99.9,M,-34.3,M,2.0,0000*79
$GPGSA,M,3,28,31,32,03,26,04,,,,,,,2.4,1.6,1.8*3C
$GPRMC,155651.000,A,4516.4148,N,07552.3012,W,0.00,61.59,201223,,,D*4B
$GPGGA,155652.000,4516.4148,N,07552.3012,W,2,06,1.6,99.9,M,-34.3,M,2.0,0000*7A
$GPGSA,M,3,28,31,32,03,26,04,,,,,,,2.4,1.6,1.8*3C
$GPRMC,155652.000,A,4516.4148,N,07552.3012,W,0.00,61.59,201223,,,D*48
$GPGGA,155653.000,4516.4148,N,07552.3012,W,2,06,1.6,99.9,M,-34.3,M,2.0,0000*7B
$GPGSA,M,3,28,31,32,03,26,04,,,,,,,2.4,1.6,1.8*3C
$GPGSV,3,1,12,28,75,028,44,31,71,275,45,32,45,114,49,03,39,300,48*70
$GPGSV,3,2,12,26,36,191,42,04,08,299,42,01,07,260,39,10,03,167,20*75
$GPGSV,3,3,12,12,02,034,33,48,19,238,42,14,55,103,,25,42,181,*79
$GPRMC,155653.000,A,4516.4148,N,07552.3012,W,0.00,61.59,201223,,,D*49
$GPGGA,155654.000,4516.4148,N,07552.3012,W,2,06,1.6,99.9,M,-34.3,M,2.0,0000*7C
$GPGSA,M,3,28,31,32,03,26,04,,,,,,,2.4,1.6,1.8*3C
$GPRMC,155654.000,A,4516.4148,N,07552.3012,W,0.00,61.59,201223,,,D*4E
$GPGGA,155655.000,4516.4148,N,07552.3012,W,2,06,1.6,99.9,M,-34.3,M,3.0,0000*7C
$GPGSA,M,3,28,31,32,03,26,04,,,,,,,2.4,1.6,1.8*3C
$GPRMC,155655.000,A,4516.4148,N,07552.3012,W,0.00,61.59,201223,,,D*4F
$GPGGA,155656.000,4516.4148,N,07552.3012,W,2,06,1.6,99.9,M,-34.3,M,4.0,0000*78
$GPGSA,M,3,28,31,32,03,26,04,,,,,,,2.4,1.6,1.8*3C
$GPRMC,155656.000,A,4516.4148,N,07552.3012,W,0.00,61.59,201223,,,D*4C
$GPGGA,155657.000,4516.4148,N,07552.3012,W,2,06,1.6,99.9,M,-34.3,M,2.0,0000*7F
$GPGSA,M,3,28,31,32,03,26,04,,,,,,,2.4,1.6,1.8*3C
$GPRMC,155657.000,A,4516.4148,N,07552.3012,W,0.00,61.59,201223,,,D*4D
$GPGGA,155658.000,4516.4148,N,07552.3012,W,2,06,1.6,99.9,M,-34.3,M,2.0,0000*70
$GPGSA,M,3,28,31,32,03,26,04,,,,,,,2.4,1.6,1.8*3C
$GPGSV,3,1,12,28,75,028,44,31,71,275,44,32,45,114,49,03,39,300,48*71
$GPGSV,3,2,12,26,36,191,42,04,08,299,42,01,07,260,39,10,03,167,21*74
$GPGSV,3,3,12,12,02,034,33,48,19,238,42,14,55,103,,25,42,181,*79
$GPRMC,155658.000,A,4516.4148,N,07552.3012,W,0.00,61.59,201223,,,D*42
$GPGGA,155659.000,4516.4148,N,07552.3012,W,2,06,1.6,99.9,M,-34.3,M,2.0,0000*71
$GPGSA,M,3,28,31,32,03,26,04,,,,,,,2.4,1.6,1.8*3C
$GPRMC,155659.000,A,4516.4148,N,07552.3012,W,0.00,61.59,201223,,,D*43
$GPGGA,155700.000,4516.4148,N,07552.3012,W,2,06,1.6,99.9,M,-34.3,M,3.0,0000*7D
$GPGSA,M,3,28,31,32,03,26,04,,,,,,,2.4,1.6,1.8*3C
$GPRMC,155700.000,A,4516.4148,N,07552.3012,W,0.00,61.59,201223,,,D*4E
$GPGGA,155701.000,4516.4148,N,07552.3012,W,2,06,1.6,99.9,M,-34.3,M,4.0,0000*7B
$GPGSA,M,3,28,31,32,03,26,04,,,,,,,2.4,1.6,1.8*3C
$GPRMC,155701.000,A,4516.4148,N,07552.3012,W,0.00,61.59,201223,,,D*4F
$GPGGA,155702.000,4516.4148,N,07552.3012,W,2,06,1.6,99.9,M,-34.3,M,5.0,0000*79
$GPGSA,M,3,28,31,32,03,26,04,,,,,,,2.4,1.6,1.8*3C
$GPRMC,155702.000,A,4516.4148,N,07552.3012,W,0.00,61.59,201223,,,D*4C
$GPGGA,155703.000,4516.4148,N,07552.3012,W,2,06,1.6,99.9,M,-34.3,M,2.0,0000*7F
$GPGSA,M,3,28,31,32,03,26,04,,,,,,,2.4,1.6,1.8*3C
$GPGSV,3,1,12,28,75,028,44,31,71,275,44,32,45,114,49,03,39,300,48*71
$GPGSV,3,2,12,26,36,191,42,04,08,299,42,01,07,260,39,10,03,167,23*76
$GPGSV,3,3,12,12,02,034,33,48,19,238,42,14,55,103,,25,42,181,*79
$GPRMC,155703.000,A,4516.4148,N,07552.3012,W,0.00,61.59,201223,,,D*4D
$GPGGA,155704.000,4516.4148,N,07552.3012,W,2,06,1.6,99.9,M,-34.3,M,2.0,0000*78
$GPGSA,M,3,28,31,32,03,26,04,,,,,,,2.4,1.6,1.8*3C
$GPRMC,155704.000,A,4516.4148,N,07552.3012,W,0.00,61.59,201223,,,D*4A
$GPGGA,155705.000,4516.4148,N,07552.3012,W,2,06,1.6,99.9,M,-34.3,M,2.0,0000*79
$GPGSA,M,3,28,31,32,03,26,04,,,,,,,2.4,1.6,1.8*3C
$GPRMC,155705.000,A,4516.4148,N,07552.3012,W,0.00,61.59,201223,,,D*4B
$GPGGA,155706.000,4516.4148,N,07552.3012,W,2,06,1.6,99.9,M,-34.3,M,3.0,0000*7B
$GPGSA,M,3,28,31,32,03,26,04,,,,,,,2.4,1.6,1.8*3C
$GPRMC,155706.000,A,4516.4148,N,07552.3012,W,0.00,61.59,201223,,,D*48
$GPGGA,155707.000,4516.4148,N,07552.3012,W,2,06,1.6,99.9,M,-34.3,M,4.0,0000*7D
$GPGSA,M,3,28,31,32,03,26,04,,,,,,,2.4,1.6,1.8*3C
$GPRMC,155707.000,A,4516.4148,N,07552.3012,W,0.00,61.59,201223,,,D*49
$GPGGA,155708.000,4516.4148,N,07552.3012,W,2,06,1.6,99.9,M,-34.3,M,5.0,0000*73
$GPGSA,M,3,28,31,32,03,26,04,,,,,,,2.4,1.6,1.8*3C
$GPGSV,3,1,12,28,75,028,45,31,71,275,44,32,45,114,49,03,39,300,48*70
$GPGSV,3,2,12,26,36,191,42,04,08,299,41,01,07,260,39,10,03,167,23*75
$GPGSV,3,3,12,12,02,034,33,48,19,238,42,14,55,103,,25,42,181,*79
$GPRMC,155708.000,A,4516.4148,N,07552.3012,W,0.00,61.59,201223,,,D*46
$GPGGA,155709.000,4516.4148,N,07552.3012,W,2,06,1.6,99.9,M,-34.3,M,2.0,0000*75
$GPGSA,M,3,28,31,32,03,26,04,,,,,,,2.4,1.6,1.8*3C
$GPRMC,155709.000,A,4516.4148,N,07552.3012,W,0.00,61.59,201223,,,D*47
$GPGGA,155710.000,4516.4148,N,07552.3012,W,2,06,1.6,99.9,M,-34.3,M,2.0,0000*7D
$GPGSA,M,3,28,31,32,03,26,04,,,,,,,2.4,1.6,1.8*3C
$GPRMC,155710.000,A,4516.4148,N,07552.3012,W,0.00,61.59,201223,,,D*4F
$GPGGA,155711.000,4516.4148,N,07552.3012,W,2,06,1.6,99.9,M,-34.3,M,2.0,0000*7C
$GPGSA,M,3,28,31,32,03,26,04,,,,,,,2.4,1.6,1.8*3C
$GPRMC,155711.000,A,4516.4148,N,07552.3012,W,0.00,61.59,201223,,,D*4E
$GPGGA,155712.000,4516.4148,N,07552.3012,W,2,06,1.6,99.9,M,-34.3,M,2.0,0000*7F
$GPGSA,M,3,28,31,32,03,26,04,,,,,,,2.4,1.6,1.8*3C
$GPRMC,155712.000,A,4516.4148,N,07552.3012,W,0.00,61.59,201223,,,D*4D
$GPGGA,155713.000,4516.4148,N,07552.3012,W,2,06,1.6,99.9,M,-34.3,M,3.0,0000*7F
$GPGSA,M,3,28,31,32,03,26,04,,,,,,,2.4,1.6,1.8*3C
$GPGSV,3,1,12,28,75,028,45,31,71,275,44,32,45,114,49,03,39,300,48*70
$GPGSV,3,2,12,26,36,191,42,04,08,299,41,01,07,260,39,10,03,167,24*72
$GPGSV,3,3,12,12,02,034,34,48,19,238,42,14,55,103,,25,42,181,*7E
$GPRMC,155713.000,A,4516.4148,N,07552.3012,W,0.00,61.59,201223,,,D*4C
$GPGGA,155714.000,4516.4148,N,07552.3012,W,2,06,1.6,99.9,M,-34.3,M,2.0,0000*79
$GPGSA,M,3,28,31,32,03,26,04,,,,,,,2.4,1.6,1.8*3C
$GPRMC,155714.000,A,4516.4148,N,07552.3012,W,0.00,61.59,201223,,,D*4B
$GPGGA,155715.000,4516.4148,N,07552.3012,W,2,06,1.6,99.9,M,-34.3,M,2.0,0000*78
$GPGSA,M,3,28,31,32,03,26,04,,,,,,,2.4,1.6,1.8*3C
$GPRMC,155715.000,A,4516.4148,N,07552.3012,W,0.00,61.59,201223,,,D*4A
$GPGGA,155716.000,4516.4148,N,07552.3012,W,2,06,1.6,99.9,M,-34.3,M,2.0,0000*7B
$GPGSA,M,3,28,31,32,03,26,04,,,,,,,2.4,1.6,1.8*3C
$GPRMC,155716.000,A,4516.4148,N,07552.3012,W,0.00,61.59,201223,,,D*49
$GPGGA,155717.000,4516.4148,N,07552.3012,W,2,06,1.6,99.9,M,-34.3,M,2.0,0000*7A
$GPGSA,M,3,28,31,32,03,26,04,,,,,,,2.4,1.6,1.8*3C
$GPRMC,155717.000,A,4516.4148,N,07552.3012,W,0.00,61.59,201223,,,D*48
$GPGGA,155718.000,4516.4148,N,07552.3012,W,2,06,1.6,99.9,M,-34.3,M,3.0,0000*74
$GPGSA,M,3,28,31,32,03,26,04,,,,,,,2.4,1.6,1.8*3C
$GPGSV,3,1,12,28,75,028,45,31,71,275,45,32,45,114,49,03,39,300,48*71
$GPGSV,3,2,12,26,36,191,42,04,08,299,40,01,07,260,39,10,03,167,24*73
$GPGSV,3,3,12,12,02,034,34,48,19,238,42,14,55,103,,25,42,181,*7E
$GPRMC,155718.000,A,4516.4148,N,07552.3012,W,0.00,61.59,201223,,,D*47
$GPGGA,155719.000,4516.4148,N,07552.3012,W,2,06,1.6,99.9,M,-34.3,M,2.0,0000*74
$GPGSA,M,3,28,31,32,03,26,04,,,,,,,2.4,1.6,1.8*3C
$GPRMC,155719.000,A,4516.4148,N,07552.3012,W,0.00,61.59,201223,,,D*46
$GPGGA,155720.000,4516.4148,N,07552.3012,W,2,06,1.6,99.9,M,-34.3,M,2.0,0000*7E
$GPGSA,M,3,28,31,32,03,26,04,,,,,,,2.4,1.6,1.8*3C
$GPRMC,155720.000,A,4516.4148,N,07552.3012,W,0.00,61.59,201223,,,D*4C
$GPGGA,155721.000,4516.4148,N,07552.3012,W,2,06,1.6,99.9,M,-34.3,M,2.0,0000*7F
$GPGSA,M,3,28,31,32,03,26,04,,,,,,,2.4,1.6,1.8*3C
$GPRMC,155721.000,A,4516.4148,N,07552.3012,W,0.00,61.59,201223,,,D*4D
$GPGGA,155722.000,4516.4148,N,07552.3012,W,2,06,1.6,99.9,M,-34.3,M,2.0,0000*7C
$GPGSA,M,3,28,31,32,03,26,04,,,,,,,2.4,1.6,1.8*3C
$GPRMC,155722.000,A,4516.4148,N,07552.3012,W,0.00,61.59,201223,,,D*4E
$GPGGA,155723.000,4516.4148,N,07552.3012,W,2,06,1.6,99.9,M,-34.3,M,2.0,0000*7D
$GPGSA,M,3,28,31,32,03,26,04,,,,,,,2.4,1.6,1.8*3C
$GPGSV,3,1,12,28,75,028,45,31,71,275,45,32,45,114,49,03,39,300,48*71
$GPGSV,3,2,12,26,36,191,42,04,08,299,41,01,07,260,40,10,03,167,24*7C
$GPGSV,3,3,12,12,02,034,34,48,19,238,42,14,55,103,,25,42,181,*7E
$GPRMC,155723.000,A,4516.4148,N,07552.3012,W,0.00,61.59,201223,,,D*4F
$GPGGA,155724.000,4516.4148,N,07552.3012,W,2,06,1.6,99.9,M,-34.3,M,3.0,0000*7B
$GPGSA,M,3,28,31,32,03,26,04,,,,,,,2.4,1.6,1.8*3C
$GPRMC,155724.000,A,4516.4148,N,07552.3012,W,0.00,61.59,201223,,,D*48
$GPGGA,155725.000,4516.4148,N,07552.3012,W,2,06,1.6,99.9,M,-34.3,M,4.0,0000*7D
$GPGSA,M,3,28,31,32,03,26,04,,,,,,,2.4,1.6,1.8*3C
$GPRMC,155725.000,A,4516.4148,N,07552.3012,W,0.00,61.59,201223,,,D*49
$GPGGA,155726.000,4516.4148,N,07552.3012,W,2,06,1.6,99.9,M,-34.3,M,5.0,0000*7F
$GPGSA,M,3,28,31,32,03,26,04,,,,,,,2.4,1.6,1.8*3C
$GPRMC,155726.000,A,4516.4148,N,07552.3012,W,0.00,61.59,201223,,,D*4A
$GPGGA,155727.000,4516.4148,N,07552.3012,W,2,06,1.6,99.9,M,-34.3,M,2.0,0000*79
$GPGSA,M,3,28,31,32,03,26,04,,,,,,,2.4,1.6,1.8*3C
$GPRMC,155727.000,A,4516.4148,N,07552.3012,W,0.00,61.59,201223,,,D*4B
$GPGGA,155728.000,4516.4148,N,07552.3012,W,2,06,1.6,99.9,M,-34.3,M,2.0,0000*76
$GPGSA,M,3,28,31,32,03,26,04,,,,,,,2.4,1.6,1.8*3C
$GPGSV,3,1,12,28,75,028,45,31,71,275,45,32,45,114,48,03,39,300,49*71
$GPGSV,3,2,12,26,36,191,43,04,08,299,41,01,07,260,40,10,03,167,21*78
$GPGSV,3,3,12,12,02,034,35,48,19,238,42,14,55,103,,25,42,181,*7F
$GPRMC,155728.000,A,4516.4148,N,07552.3012,W,0.00,61.59,201223,,,D*44
$GPGGA,155729.000,4516.4148,N,07552.3012,W,2,06,1.6,100.0,M,-34.3,M,2.0,0000*4F
$GPGSA,M,3,28,31,32,03,26,04,,,,,,,2.4,1.6,1.8*3C
$GPRMC,155729.000,A,4516.4148,N,07552.3012,W,0.00,61.59,201223,,,D*45
$GPGGA,155730.000,4516.4148,N,07552.3012,W,2,06,1.6,100.0,M,-34.3,M,3.0,0000*46
$GPGSA,M,3,28,31,32,03,26,04,,,,,,,2.5,1.6,1.8*3D
$GPRMC,155730.000,A,4516.4148,N,07552.3012,W,0.00,61.59,201223,,,D*4D
$GPGGA,155731.000,4516.4148,N,07552.3012,W,2,06,1.6,100.0,M,-34.3,M,4.0,0000*40
$GPGSA,M,3,28,31,32,03,26,04,,,,,,,2.5,1.6,1.8*3D
$GPRMC,155731.000,A,4516.4148,N,07552.3012,W,0.00,61.59,201223,,,D*4C
$GPGGA,155732.000,4516.4148,N,07552.3012,W,2,06,1.6,100.0,M,-34.3,M,5.0,0000*42
$GPGSA,M,3,28,31,32,03,26,04,,,,,,,2.5,1.6,1.8*3D
$GPRMC,155732.000,A,4516.4148,N,07552.3012,W,0.00,61.59,201223,,,D*4F
$GPGGA,155733.000,4516.4148,N,07552.3012,W,2,06,1.6,100.0,M,-34.3,M,2.0,0000*44
$GPGSA,M,3,28,31,32,03,26,04,,,,,,,2.5,1.6,1.8*3D
$GPGSV,3,1,12,28,75,028,45,31,71,275,45,32,45,114,48,03,39,300,49*71
$GPGSV,3,2,12,26,36,191,43,04,08,299,40,01,07,260,40,10,03,167,23*7B
$GPGSV,3,3,12,12,02,034,35,48,19,238,42,14,55,103,,25,42,181,*7F
$GPRMC,155733.000,A,4516.4148,N,07552.3012,W,0.00,61.59,201223,,,D*4E
$GPGGA,155734.000,4516.4148,N,07552.3012,W,2,06,1.6,100.0,M,-34.3,M,2.0,0000*43
$GPGSA,M,3,28,31,32,03,26,04,,,,,,,2.5,1.6,1.8*3D
$GPRMC,155734.000,A,4516.4148,N,07552.3012,W,0.00,61.59,201223,,,D*49
$GPGGA,155735.000,4516.4148,N,07552.3012,W,2,06,1.6,100.0,M,-34.3,M,2.0,0000*42
$GPGSA,M,3,28,31,32,03,26,04,,,,,,,2.5,1.6,1.8*3D
$GPRMC,155735.000,A,4516.4148,N,07552.3012,W,0.00,61.59,201223,,,D*48
$GPGGA,155736.000,4516.4148,N,07552.3012,W,2,06,1.6,100.0,M,-34.3,M,3.0,0000*40
$GPGSA,M,3,28,31,32,03,26,04,,,,,,,2.5,1.6,1.8*3D
$GPRMC,155736.000,A,4516.4148,N,07552.3012,W,0.00,61.59,201223,,,D*4B
$GPGGA,155737.000,4516.4148,N,07552.3012,W,2,06,1.6,100.0,M,-34.3,M,2.0,0000*40
$GPGSA,M,3,28,31,32,03,26,04,,,,,,,2.5,1.6,1.8*3D
$GPRMC,155737.000,A,4516.4148,N,07552.3012,W,0.00,61.59,201223,,,D*4A
$GPGGA,155738.000,4516.4148,N,07552.3012,W,2,06,1.6,100.0,M,-34.3,M,3.0,0000*4E
$GPGSA,M,3,28,31,32,03,26,04,,,,,,,2.5,1.6,1.8*3D
$GPGSV,3,1,12,28,75,028,45,31,71,275,45,32,45,114,48,03,39,300,49*71
$GPGSV,3,2,12,26,36,191,43,04,08,299,40,01,07,260,40,10,03,167,23*7B
$GPGSV,3,3,12,12,02,034,35,48,19,238,42,14,55,103,,25,42,181,*7F
$GPRMC,155738.000,A,4516.4148,N,07552.3012,W,0.00,61.59,201223,,,D*45
$GPGGA,155739.000,4516.4148,N,07552.3012,W,2,06,1.6,100.0,M,-34.3,M,2.0,0000*4E
$GPGSA,M,3,28,31,32,03,26,04,,,,,,,2.5,1.6,1.8*3D
$GPRMC,155739.000,A,4516.4148,N,07552.3012,W,0.00,61.59,201223,,,D*44
$GPGGA,155740.000,4516.4148,N,07552.3012,W,2,06,1.6,100.0,M,-34.3,M,2.0,0000*40
$GPGSA,M,3,28,31,32,03,26,04,,,,,,,2.5,1.6,1.8*3D
$GPRMC,155740.000,A,4516.4148,N,07552.3012,W,0.00,61.59,201223,,,D*4A
$GPGGA,155741.000,4516.4148,N,07552.3012,W,2,06,1.6,100.0,M,-34.3,M,2.0,0000*41
$GPGSA,M,3,28,31,32,03,26,04,,,,,,,2.5,1.6,1.8*3D
$GPRMC,155741.000,A,4516.4148,N,07552.3012,W,0.00,61.59,201223,,,D*4B
$GPGGA,155742.000,4516.4148,N,07552.3012,W,2,06,1.6,100.0,M,-34.3,M,2.0,0000*42
$GPGSA,M,3,28,31,32,03,26,04,,,,,,,2.5,1.6,1.8*3D
$GPRMC,155742.000,A,4516.4148,N,07552.3012,W,0.00,61.59,201223,,,D*48
$GPGGA,155743.000,4516.4148,N,07552.3012,W,2,06,1.6,100.0,M,-34.3,M,3.0,0000*42
$GPGSA,M,3,28,31,32,03,26,04,,,,,,,2.5,1.6,1.8*3D
$GPGSV,3,1,12,28,75,028,45,31,71,275,45,32,45,114,49,03,39,300,49*70
$GPGSV,3,2,12,26,36,191,43,04,08,299,39,01,07,260,40,10,03,167,22*74
$GPGSV,3,3,12,12,02,034,36,48,19,238,42,14,55,103,,25,42,181,*7C
$GPRMC,155743.000,A,4516.4148,N,07552.3012,W,0.00,61.59,201223,,,D*49
$GPGGA,155744.000,4516.4148,N,07552.3012,W,2,06,1.6,100.0,M,-34.3,M,4.0,0000*42
$GPGSA,M,3,28,31,32,03,26,04,,,,,,,2.5,1.6,1.8*3D
$GPRMC,155744.000,A,4516.4148,N,07552.3012,W,0.00,61.59,201223,,,D*4E
$GPGGA,155745.000,4516.4148,N,07552.3012,W,2,06,1.6,100.0,M,-34.3,M,2.0,0000*45
$GPGSA,M,3,28,31,32,03,26,04,,,,,,,2.5,1.6,1.8*3D
$GPRMC,155745.000,A,4516.4148,N,07552.3012,W,0.00,61.59,201223,,,D*4F
$GPGGA,155746.000,4516.4148,N,07552.3012,W,2,06,1.6,100.0,M,-34.3,M,2.0,0000*46
$GPGSA,M,3,28,31,32,03,26,04,,,,,,,2.5,1.6,1.8*3D
$GPRMC,155746.000,A,4516.4148,N,07552.3012,W,0.00,61.59,201223,,,D*4C
$GPGGA,155747.000,4516.4148,N,07552.3012,W,2,06,1.6,100.0,M,-34.3,M,2.0,0000*47
$GPGSA,M,3,28,31,32,03,26,04,,,,,,,2.5,1.6,1.8*3D
$GPRMC,155747.000,A,4516.4148,N,07552.3012,W,0.00,61.59,201223,,,D*4D
$GPGGA,155748.000,4516.4148,N,07552.3012,W,2,06,1.6,100.0,M,-34.3,M,3.0,0000*49
$GPGSA,M,3,28,31,32,03,26,04,,,,,,,2.5,1.6,1.8*3D
$GPGSV,3,1,12,28,75,028,45,31,71,275,46,32,45,114,48,03,39,300,48*73
$GPGSV,3,2,12,26,36,191,43,04,08,299,39,01,07,260,41,10,03,167,23*74
$GPGSV,3,3,12,12,02,034,36,48,19,238,42,14,55,103,,25,42,181,*7C
$GPRMC,155748.000,A,4516.4148,N,07552.3012,W,0.00,61.59,201223,,,D*42
$GPGGA,155749.000,4516.4148,N,07552.3012,W,2,06,1.6,100.0,M,-34.3,M,2.0,0000*49
$GPGSA,M,3,28,31,32,03,26,04,,,,,,,2.5,1.6,1.8*3D
$GPRMC,155749.000,A,4516.4148,N,07552.3012,W,0.00,61.59,201223,,,D*43
$GPGGA,155750.000,4516.4148,N,07552.3012,W,2,06,1.6,100.0,M,-34.3,M,3.0,0000*40
$GPGSA,M,3,28,31,32,03,26,04,,,,,,,2.5,1.6,1.8*3D
$GPRMC,155750.000,A,4516.4148,N,07552.3012,W,0.00,61.59,201223,,,D*4B
$GPGGA,155751.000,4516.4148,N,07552.3012,W,2,06,1.6,100.0,M,-34.3,M,2.0,0000*40
$GPGSA,M,3,28,31,32,03,26,04,,,,,,,2.5,1.6,1.8*3D
$GPRMC,155751.000,A,4516.4148,N,07552.3012,W,0.00,61.59,201223,,,D*4A
$GPGGA,155752.000,4516.4148,N,07552.3012,W,2,06,1.6,100.0,M,-34.3,M,2.0,0000*43
$GPGSA,M,3,28,31,32,03,26,04,,,,,,,2.5,1.6,1.8*3D
$GPRMC,155752.000,A,4516.4148,N,07552.3012,W,0.00,61.59,201223,,,D*49
$GPGGA,155753.000,4516.4148,N,07552.3012,W,2,06,1.6,100.0,M,-34.3,M,2.0,0000*42
$GPGSA,M,3,28,31,32,03,26,04,,,,,,,2.5,1.6,1.8*3D
$GPGSV,3,1,12,28,75,028,45,31,71,275,46,32,45,114,48,03,39,300,48*73
$GPGSV,3,2,12,26,36,191,43,04,08,299,40,01,07,260,41,10,03,167,23*7A
$GPGSV,3,3,12,12,02,034,36,48,19,238,42,14,55,103,,25,42,181,*7C
$GPRMC,155753.000,A,4516.4148,N,07552.3012,W,0.00,61.59,201223,,,D*48
$GPGGA,155754.000,4516.4148,N,07552.3012,W,2,06,1.6,100.0,M,-34.3,M,3.0,0000*44
$GPGSA,M,3,28,31,32,03,26,04,,,,,,,2.5,1.6,1.8*3D
$GPRMC,155754.000,A,4516.4148,N,07552.3012,W,0.00,61.59,201223,,,D*4F
$GPGGA,155755.000,4516.4148,N,07552.3012,W,2,06,1.6,100.0,M,-34.3,M,4.0,0000*42
$GPGSA,M,3,28,31,32,03,26,04,,,,,,,2.5,1.6,1.8*3D
$GPRMC,155755.000,A,4516.4148,N,07552.3012,W,0.00,61.59,201223,,,D*4E
$GPGGA,155756.000,4516.4148,N,07552.3012,W,2,06,1.6,100.0,M,-34.3,M,5.0,0000*40
$GPGSA,M,3,28,31,32,03,26,04,,,,,,,2.5,1.6,1.8*3D
$GPRMC,155756.000,A,4516.4148,N,07552.3012,W,0.00,61.59,201223,,,D*4D
$GPGGA,155757.000,4516.4148,N,07552.3013,W,2,06,1.6,100.0,M,-34.3,M,2.0,0000*47
$GPGSA,M,3,28,31,32,03,26,04,,,,,,,2.5,1.6,1.8*3D
$GPRMC,155757.000,A,4516.4148,N,07552.3013,W,0.00,61.59,201223,,,D*4D
$GPGGA,155758.000,4516.4148,N,07552.3013,W,2,06,1.6,100.0,M,-34.3,M,2.0,0000*48
$GPGSA,M,3,28,31,32,03,26,04,,,,,,,2.5,1.6,1.8*3D
$GPGSV,3,1,12,28,75,028,46,31,71,275,46,32,45,114,48,03,39,300,48*70
$GPGSV,3,2,12,26,36,191,43,04,08,299,40,01,07,260,40,10,03,167,23*7B
$GPGSV,3,3,12,12,02,034,36,48,19,238,42,14,55,103,,25,42,181,*7C
$GPRMC,155758.000,A,4516.4148,N,07552.3013,W,0.00,61.59,201223,,,D*42
$GPGGA,155759.000,4516.4148,N,07552.3013,W,2,06,1.6,100.0,M,-34.3,M,2.0,0000*49
$GPGSA,M,3,28,31,32,03,26,04,,,,,,,2.5,1.6,1.8*3D
$GPRMC,155759.000,A,4516.4148,N,07552.3013,W,0.00,61.59,201223,,,D*43
$GPGGA,155800.000,4516.4148,N,07552.3013,W,2,06,1.6,100.0,M,-34.3,M,3.0,0000*4B
$GPGSA,M,3,28,31,32,03,26,04,,,,,,,2.5,1.6,1.8*3D
$GPRMC,155800.000,A,4516.4148,N,07552.3013,W,0.00,61.59,201223,,,D*40
$GPGGA,155801.000,4516.4148,N,07552.3013,W,2,06,1.6,100.0,M,-34.3,M,4.0,0000*4D
$GPGSA,M,3,28,31,32,03,26,04,,,,,,,2.5,1.6,1.8*3D
$GPRMC,155801.000,A,4516.4148,N,07552.3013,W,0.00,61.59,201223,,,D*41
$GPGGA,155802.000,4516.4148,N,07552.3013,W,2,06,1.6,100.0,M,-34.3,M,5.0,0000*4F
$GPGSA,M,3,28,31,32,03,26,04,,,,,,,2.5,1.6,1.8*3D
$GPRMC,155802.000,A,4516.4148,N,07552.3013,W,0.00,61.59,201223,,,D*42
$GPGGA,155803.000,4516.4148,N,07552.3013,W,2,06,1.6,100.0,M,-34.3,M,2.0,0000*49
$GPGSA,M,3,28,31,32,03,26,04,,,,,,,2.5,1.6,1.8*3D
$GPGSV,3,1,12,28,75,028,46,31,71,275,46,32,45,114,48,03,39,300,48*70
$GPGSV,3,2,12,26,36,191,43,04,08,299,40,01,07,260,40,10,03,167,24*7C
$GPGSV,3,3,12,12,02,034,36,48,19,238,42,14,55,103,,25,42,181,*7C
$GPRMC,155803.000,A,4516.4148,N,07552.3013,W,0.00,61.59,201223,,,D*43
$GPGGA,155804.000,4516.4148,N,07552.3013,W,2,06,1.6,100.0,M,-34.3,M,2.0,0000*4E
$GPGSA,M,3,28,31,32,03,26,04,,,,,,,2.5,1.6,1.8*3D
$GPRMC,155804.000,A,4516.4148,N,07552.3013,W,0.00,61.59,201223,,,D*44
$GPGGA,155805.000,4516.4148,N,07552.3013,W,2,06,1.6,100.0,M,-34.3,M,2.0,0000*4F
$GPGSA,M,3,28,31,32,03,26,04,,,,,,,2.5,1.6,1.8*3D
$GPRMC,155805.000,A,4516.4148,N,07552.3013,W,0.00,61.59,201223,,,D*45
$GPGGA,155806.000,4516.4148,N,07552.3013,W,2,06,1.6,100.0,M,-34.3,M,3.0,0000*4D
$GPGSA,M,3,28,31,32,03,26,04,,,,,,,2.5,1.6,1.8*3D
$GPRMC,155806.000,A,4516.4148,N,07552.3013,W,0.00,61.59,201223,,,D*46
$GPGGA,155807.000,4516.4148,N,07552.3013,W,2,06,1.6,100.0,M,-34.3,M,2.0,0000*4D
$GPGSA,M,3,28,31,32,03,26,04,,,,,,,2.5,1.6,1.8*3D
$GPRMC,155807.000,A,4516.4148,N,07552.3013,W,0.00,61.59,201223,,,D*47
$GPGGA,155808.000,4516.4148,N,07552.3013,W,2,06,1.6,100.0,M,-34.3,M,3.0,0000*43
$GPGSA,M,3,28,31,32,03,26,04,,,,,,,2.5,1.6,1.8*3D
$GPGSV,3,1,12,28,75,028,46,31,71,275,46,32,45,114,48,03,39,300,49*71
$GPGSV,3,2,12,26,36,191,43,04,08,299,40,01,07,260,40,10,03,167,24*7C
$GPGSV,3,3,12,12,02,034,36,48,19,238,43,14,55,103,,25,42,181,*7D
$GPRMC,155808.000,A,4516.4148,N,07552.3013,W,0.00,61.59,201223,,,D*48
$GPGGA,155809.000,4516.4148,N,07552.3013,W,2,06,1.6,100.0,M,-34.3,M,2.0,0000*43
$GPGSA,M,3,28,31,32,03,26,04,,,,,,,2.5,1.6,1.8*3D
$GPRMC,155809.000,A,4516.4148,N,07552.3013,W,0.00,61.59,201223,,,D*49
$GPGGA,155810.000,4516.4148,N,07552.3013,W,2,06,1.6,100.0,M,-34.3,M,2.0,0000*4B
$GPGSA,M,3,28,31,32,03,26,04,,,,,,,2.5,1.6,1.8*3D
$GPRMC,155810.000,A,4516.4148,N,07552.3013,W,0.00,61.59,201223,,,D*41
$GPGGA,155811.000,4516.4148,N,07552.3013,W,2,06,1.6,100.0,M,-34.3,M,2.0,0000*4A
$GPGSA,M,3,28,31,32,03,26,04,,,,,,,2.5,1.6,1.8*3D
$GPRMC,155811.000,A,4516.4148,N,07552.3013,W,0.00,61.59,201223,,,D*40
$GPGGA,155812.000,4516.4148,N,07552.3013,W,2,06,1.6,100.0,M,-34.3,M,3.0,0000*48
$GPGSA,M,3,28,31,32,03,26,04,,,,,,,2.5,1.6,1.8*3D
$GPRMC,155812.000,A,4516.4148,N,07552.3013,W,0.00,61.59,201223,,,D*43
$GPGGA,155813.000,4516.4148,N,07552.3013,W,2,06,1.6,100.0,M,-34.3,M,4.0,0000*4E
$GPGSA,M,3,28,31,32,03,26,04,,,,,,,2.5,1.6,1.8*3D
$GPGSV,3,1,12,28,75,028,46,31,71,275,46,32,45,114,47,03,39,300,49*7E
$GPGSV,3,2,12,26,36,191,43,04,08,299,40,01,07,260,38,10,03,167,25*72
$GPGSV,3,3,12,12,02,034,35,48,19,238,43,14,55,103,,25,42,181,*7E
$GPRMC,155813.000,A,4516.4148,N,07552.3013,W,0.00,61.59,201223,,,D*42
$GPGGA,155814.000,4516.4148,N,07552.3013,W,2,06,1.6,100.0,M,-34.3,M,2.0,0000*4F
$GPGSA,M,3,28,31,32,03,26,04,,,,,,,2.5,1.6,1.8*3D
$GPRMC,155814.000,A,4516.4148,N,07552.3013,W,0.00,61.59,201223,,,D*45
$GPGGA,155815.000,4516.4148,N,07552.3013,W,2,06,1.6,100.0,M,-34.3,M,2.0,0000*4E
$GPGSA,M,3,28,31,32,03,26,04,,,,,,,2.5,1.6,1.8*3D
$GPRMC,155815.000,A,4516.4148,N,07552.3013,W,0.00,61.59,201223,,,D*44
$GPGGA,155816.000,4516.4148,N,07552.3013,W,2,06,1.6,100.0,M,-34.3,M,2.0,0000*4D
$GPGSA,M,3,28,31,32,03,26,04,,,,,,,2.5,1.6,1.8*3D
$GPRMC,155816.000,A,4516.4148,N,07552.3013,W,0.00,61.59,201223,,,D*47
$GPGGA,155817.000,4516.4148,N,07552.3013,W,2,06,1.6,100.0,M,-34.3,M,2.0,0000*4C
$GPGSA,M,3,28,31,32,03,26,04,,,,,,,2.5,1.6,1.8*3D
$GPRMC,155817.000,A,4516.4148,N,07552.3013,W,0.00,61.59,201223,,,D*46
$GPGGA,155818.000,4516.4148,N,07552.3013,W,2,06,1.6,100.0,M,-34.3,M,3.0,0000*42
$GPGSA,M,3,28,31,32,03,26,04,,,,,,,2.5,1.6,1.8*3D
$GPGSV,3,1,12,28,75,028,45,31,71,275,45,32,45,114,46,03,39,300,49*7F
$GPGSV,3,2,12,26,36,191,42,04,08,299,43,01,07,260,36,10,03,167,25*7E
$GPGSV,3,3,12,12,02,034,34,48,19,238,42,14,55,103,,25,42,181,*7E
$GPRMC,155818.000,A,4516.4148,N,07552.3013,W,0.00,61.59,201223,,,D*49
$GPGGA,155819.000,4516.4148,N,07552.3013,W,2,06,1.6,100.0,M,-34.3,M,4.0,0000*44
$GPGSA,M,3,28,31,32,03,26,04,,,,,,,2.5,1.6,1.8*3D
$GPRMC,155819.000,A,4516.4148,N,07552.3013,W,0.00,61.59,201223,,,D*48
$GPGGA,155820.000,4516.4148,N,07552.3013,W,2,06,1.6,100.0,M,-34.3,M,2.0,0000*48
$GPGSA,M,3,28,31,32,03,26,04,,,,,,,2.5,1.6,1.8*3D
$GPRMC,155820.000,A,4516.4148,N,07552.3013,W,0.00,61.59,201223,,,D*42
$GPGGA,155821.000,4516.4148,N,07552.3013,W,2,06,1.6,100.0,M,-34.3,M,2.0,0000*49
$GPGSA,M,3,28,31,32,03,26,04,,,,,,,2.5,1.6,1.8*3D
$GPRMC,155821.000,A,4516.4148,N,07552.3013,W,0.00,61.59,201223,,,D*43
$GPGGA,155822.000,4516.4148,N,07552.3013,W,2,06,1.6,100.0,M,-34.3,M,2.0,0000*4A
$GPGSA,M,3,28,31,32,03,26,04,,,,,,,2.5,1.6,1.8*3D
$GPRMC,155822.000,A,4516.4148,N,07552.3013,W,0.00,61.59,201223,,,D*40
$GPGGA,155823.000,4516.4148,N,07552.3013,W,2,06,1.6,100.0,M,-34.3,M,2.0,0000*4B
$GPGSA,M,3,28,31,32,03,26,04,,,,,,,2.5,1.6,1.8*3D
$GPGSV,3,1,12,28,75,028,45,31,71,275,45,32,45,114,46,03,39,300,49*7F
$GPGSV,3,2,12,26,36,191,42,04,08,299,44,01,07,260,41,10,03,167,26*7A
$GPGSV,3,3,12,12,02,034,33,48,19,238,42,14,55,103,,25,42,181,*79
$GPRMC,155823.000,A,4516.4148,N,07552.3013,W,0.00,61.59,201223,,,D*41
$GPGGA,155824.000,4516.4148,N,07552.3013,W,2,06,1.6,100.0,M,-34.3,M,2.0,0000*4C
$GPGSA,M,3,28,31,32,03,26,04,,,,,,,2.5,1.6,1.8*3D
$GPRMC,155824.000,A,4516.4148,N,07552.3013,W,0.00,61.59,201223,,,D*46
$GPGGA,155825.000,4516.4148,N,07552.3013,W,2,06,1.6,100.0,M,-34.3,M,3.0,0000*4C
$GPGSA,M,3,28,31,32,03,26,04,,,,,,,2.5,1.6,1.8*3D
$GPRMC,155825.000,A,4516.4148,N,07552.3013,W,0.00,61.59,201223,,,D*47
$GPGGA,155826.000,4516.4148,N,07552.3013,W,2,06,1.6,100.0,M,-34.3,M,4.0,0000*48
$GPGSA,M,3,28,31,32,03,26,04,,,,,,,2.5,1.6,1.8*3D
$GPRMC,155826.000,A,4516.4148,N,07552.3013,W,0.00,61.59,201223,,,D*44
$GPGGA,155827.000,4516.4148,N,07552.3013,W,2,06,1.6,100.0,M,-34.3,M,2.0,0000*4F
$GPGSA,M,3,28,31,32,03,26,04,,,,,,,2.5,1.6,1.8*3D
$GPRMC,155827.000,A,4516.4148,N,07552.3013,W,0.00,61.59,201223,,,D*45
$GPGGA,155828.000,4516.4148,N,07552.3013,W,2,06,1.6,100.0,M,-34.3,M,2.0,0000*40
$GPGSA,M,3,28,31,32,03,26,04,,,,,,,2.5,1.6,1.8*3D
$GPGSV,3,1,12,28,75,028,45,31,71,275,45,32,45,114,45,03,39,300,49*7C
$GPGSV,3,2,12,26,36,191,43,04,08,299,45,01,07,260,42,10,03,167,26*79
$GPGSV,3,3,12,12,02,034,33,48,19,238,42,14,55,103,,25,42,181,*79
$GPRMC,155828.000,A,4516.4148,N,07552.3013,W,0.00,61.59,201223,,,D*4A
$GPGGA,155829.000,4516.4148,N,07552.3013,W,2,06,1.6,100.0,M,-34.3,M,2.0,0000*41
$GPGSA,M,3,28,31,32,03,26,04,,,,,,,2.5,1.6,1.8*3D
$GPRMC,155829.000,A,4516.4148,N,07552.3013,W,0.00,61.59,201223,,,D*4B
$GPGGA,155830.000,4516.4148,N,07552.3013,W,2,06,1.6,100.0,M,-34.3,M,3.0,0000*48
$GPGSA,M,3,28,31,32,03,26,04,,,,,,,2.5,1.6,1.8*3D
$GPRMC,155830.000,A,4516.4148,N,07552.3013,W,0.00,61.59,201223,,,D*43
$GPGGA,155831.000,4516.4148,N,07552.3013,W,2,06,1.6,100.0,M,-34.3,M,4.0,0000*4E
$GPGSA,M,3,28,31,32,03,26,04,,,,,,,2.5,1.6,1.8*3D
$GPRMC,155831.000,A,4516.4148,N,07552.3013,W,0.00,61.59,201223,,,D*42
$GPGGA,155832.000,4516.4148,N,07552.3013,W,2,06,1.6,100.0,M,-34.3,M,5.0,0000*4C
$GPGSA,M,3,28,31,32,03,26,04,,,,,,,2.5,1.6,1.8*3D
$GPRMC,155832.000,A,4516.4148,N,07552.3013,W,0.00,61.59,201223,,,D*41
$GPGGA,155833.000,4516.4148,N,07552.3013,W,2,06,1.6,100.0,M,-34.3,M,2.0,0000*4A
$GPGSA,M,3,28,31,32,03,26,04,,,,,,,2.5,1.6,1.8*3D
$GPGSV,3,1,12,28,75,028,44,31,71,275,45,32,45,114,46,03,39,300,49*7E
$GPGSV,3,2,12,26,36,191,43,04,08,299,46,01,07,260,43,10,03,167,26*7B
$GPGSV,3,3,12,12,02,034,33,48,19,238,42,14,55,103,,25,42,181,*79
$GPRMC,155833.000,A,4516.4148,N,07552.3013,W,0.00,61.59,201223,,,D*40
$GPGGA,155834.000,4516.4148,N,07552.3013,W,2,06,1.6,100.0,M,-34.3,M,2.0,0000*4D
$GPGSA,M,3,28,31,32,03,26,04,,,,,,,2.5,1.6,1.8*3D
$GPRMC,155834.000,A,4516.4148,N,07552.3013,W,0.00,61.59,201223,,,D*47
$GPGGA,155835.000,4516.4148,N,07552.3013,W,2,06,1.6,100.0,M,-34.3,M,2.0,0000*4C
$GPGSA,M,3,28,31,32,03,26,04,,,,,,,2.5,1.6,1.8*3D
$GPRMC,155835.000,A,4516.4148,N,07552.3013,W,0.00,61.59,201223,,,D*46
$GPGGA,155836.000,4516.4148,N,07552.3013,W,2,06,1.6,100.0,M,-34.3,M,3.0,0000*4E
$GPGSA,M,3,28,31,32,03,26,04,,,,,,,2.5,1.6,1.8*3D
$GPRMC,155836.000,A,4516.4148,N,07552.3013,W,0.00,61.59,201223,,,D*45
$GPGGA,155837.000,4516.4148,N,07552.3013,W,2,06,1.6,100.0,M,-34.3,M,4.0,0000*48
$GPGSA,M,3,28,31,32,03,26,04,,,,,,,2.5,1.6,1.8*3D
$GPRMC,155837.000,A,4516.4148,N,07552.3013,W,0.00,61.59,201223,,,D*44
$GPGGA,155838.000,4516.4148,N,07552.3013,W,2,06,1.6,100.0,M,-34.3,M,5.0,0000*46
$GPGSA,M,3,28,31,32,03,26,04,,,,,,,2.5,1.6,1.8*3D
$GPGSV,3,1,12,28,74,032,45,31,72,278,45,32,44,115,46,03,40,298,49*75
$GPGSV,3,2,12,26,38,191,43,04,09,299,46,01,06,259,44,10,02,167,26*79
$GPGSV,3,3,12,12,01,034,33,48,19,238,42,14,53,105,,25,43,181,*7B
$GPRMC,155838.000,A,4516.4148,N,07552.3013,W,0.00,61.59,201223,,,D*4B
$GPGGA,155839.000,4516.4148,N,07552.3013,W,2,06,1.6,100.0,M,-34.3,M,2.0,0000*40
$GPGSA,M,3,28,31,32,03,26,04,,,,,,,2.5,1.6,1.8*3D
$GPRMC,155839.000,A,4516.4148,N,07552.3013,W,0.00,61.59,201223,,,D*4A
$GPGGA,155840.000,4516.4148,N,07552.3013,W,2,06,1.6,100.0,M,-34.3,M,2.0,0000*4E
$GPGSA,M,3,28,31,32,03,26,04,,,,,,,2.5,1.6,1.8*3D
$GPRMC,155840.000,A,4516.4148,N,07552.3013,W,0.00,61.59,201223,,,D*44
$GPGGA,155841.000,4516.4148,N,07552.3013,W,2,06,1.6,100.0,M,-34.3,M,2.0,0000*4F
$GPGSA,M,3,28,31,32,03,26,04,,,,,,,2.5,1.6,1.8*3D
$GPRMC,155841.000,A,4516.4148,N,07552.3013,W,0.00,61.59,201223,,,D*45
$GPGGA,155842.000,4516.4148,N,07552.3013,W,2,06,1.6,100.0,M,-34.3,M,3.0,0000*4D
$GPGSA,M,3,28,31,32,03,26,04,,,,,,,2.5,1.6,1.8*3D
$GPRMC,155842.000,A,4516.4148,N,07552.3013,W,0.00,61.59,201223,,,D*46
$GPGGA,155843.000,4516.4148,N,07552.3013,W,2,06,1.6,100.0,M,-34.3,M,4.0,0000*4B
$GPGSA,M,3,28,31,32,03,26,04,,,,,,,2.5,1.6,1.8*3D
$GPGSV,3,1,12,28,74,032,46,31,72,278,45,32,44,115,47,03,40,298,49*77
$GPGSV,3,2,12,26,38,191,44,04,09,299,46,01,06,259,44,10,02,167,27*7F
$GPGSV,3,3,12,12,01,034,33,48,19,238,42,14,53,105,,25,43,181,*7B
$GPRMC,155843.000,A,4516.4148,N,07552.3013,W,0.00,61.59,201223,,,D*47
$GPGGA,155844.000,4516.4148,N,07552.3013,W,2,06,1.6,100.0,M,-34.3,M,5.0,0000*4D
$GPGSA,M,3,28,31,32,03,26,04,,,,,,,2.5,1.6,1.8*3D
$GPRMC,155844.000,A,4516.4148,N,07552.3013,W,0.00,61.59,201223,,,D*40
$GPGGA,155845.000,4516.4148,N,07552.3013,W,2,06,1.6,100.0,M,-34.3,M,2.0,0000*4B
$GPGSA,M,3,28,31,32,03,26,04,,,,,,,2.5,1.6,1.8*3D
$GPRMC,155845.000,A,4516.4148,N,07552.3013,W,0.00,61.59,201223,,,D*41
$GPGGA,155846.000,4516.4148,N,07552.3013,W,2,06,1.6,100.0,M,-34.3,M,2.0,0000*48
$GPGSA,M,3,28,31,32,03,26,04,,,,,,,2.5,1.6,1.8*3D
$GPRMC,155846.000,A,4516.4148,N,07552.3013,W,0.00,61.59,201223,,,D*42
$GPGGA,155847.000,4516.4148,N,07552.3013,W,2,06,1.6,100.0,M,-34.3,M,2.0,0000*49
$GPGSA,M,3,28,31,32,03,26,04,,,,,,,2.5,1.6,1.8*3D
$GPRMC,155847.000,A,4516.4148,N,07552.3013,W,0.00,61.59,201223,,,D*43
$GPGGA,155848.000,4516.4148,N,07552.3013,W,2,06,1.6,100.0,M,-34.3,M,2.0,0000*46
$GPGSA,M,3,28,31,32,03,26,04,,,,,,,2.5,1.6,1.8*3D
$GPGSV,3,1,12,28,74,032,46,31,72,278,45,32,44,115,46,03,40,298,49*76
$GPGSV,3,2,12,26,38,191,44,04,09,299,47,01,06,259,44,10,02,167,27*7E
$GPGSV,3,3,12,12,01,034,33,48,19,238,42,14,53,105,,25,43,181,*7B
$GPRMC,155848.000,A,4516.4148,N,07552.3013,W,0.00,61.59,201223,,,D*4C
$GPGGA,155849.000,4516.4148,N,07552.3013,W,2,06,1.6,100.0,M,-34.3,M,2.0,0000*47
$GPGSA,M,3,28,31,32,03,26,04,,,,,,,2.5,1.6,1.8*3D
$GPRMC,155849.000,A,4516.4148,N,07552.3013,W,0.00,61.59,201223,,,D*4D
$GPGGA,155850.000,4516.4148,N,07552.3013,W,2,06,1.6,100.0,M,-34.3,M,2.0,0000*4F
$GPGSA,M,3,28,31,32,03,26,04,,,,,,,2.5,1.6,1.8*3D
$GPRMC,155850.000,A,4516.4148,N,07552.3013,W,0.00,61.59,201223,,,D*45
$GPGGA,155851.000,4516.4148,N,07552.3013,W,2,06,1.6,100.0,M,-34.3,M,2.0,0000*4E
$GPGSA,M,3,28,31,32,03,26,04,,,,,,,2.5,1.6,1.8*3D
$GPRMC,155851.000,A,4516.4148,N,07552.3013,W,0.00,61.59,201223,,,D*44
$GPGGA,155852.000,4516.4148,N,07552.3013,W,2,06,1.6,100.0,M,-34.3,M,2.0,0000*4D
$GPGSA,M,3,28,31,32,03,26,04,,,,,,,2.5,1.6,1.8*3D
$GPRMC,155852.000,A,4516.4148,N,07552.3013,W,0.00,61.59,201223,,,D*47
$GPGGA,155853.000,4516.4148,N,07552.3013,W,2,06,1.6,100.0,M,-34.3,M,2.0,0000*4C
$GPGSA,M,3,28,31,32,03,26,04,,,,,,,2.5,1.6,1.8*3D
$GPGSV,3,1,12,28,74,032,46,31,72,278,44,32,44,115,46,03,40,298,49*77
$GPGSV,3,2,12,26,38,191,43,04,09,299,47,01,06,259,44,10,02,167,27*79
$GPGSV,3,3,12,12,01,034,33,48,19,238,42,14,53,105,,25,43,181,*7B
$GPRMC,155853.000,A,4516.4148,N,07552.3013,W,0.00,61.59,201223,,,D*46
$GPGGA,155854.000,4516.4148,N,07552.3013,W,2,06,1.6,100.0,M,-34.3,M,3.0,0000*4A
$GPGSA,M,3,28,31,32,03,26,04,,,,,,,2.5,1.6,1.8*3D
$GPRMC,155854.000,A,4516.4148,N,07552.3013,W,0.00,61.59,201223,,,D*41
$GPGGA,155855.000,4516.4148,N,07552.3013,W,2,06,1.6,100.0,M,-34.3,M,4.0,0000*4C
$GPGSA,M,3,28,31,32,03,26,04,,,,,,,2.5,1.6,1.8*3D
$GPRMC,155855.000,A,4516.4148,N,07552.3013,W,0.00,61.59,201223,,,D*40
$GPGGA,155856.000,4516.4148,N,07552.3013,W,2,06,1.6,100.0,M,-34.3,M,2.0,0000*49
$GPGSA,M,3,28,31,32,03,26,04,,,,,,,2.5,1.6,1.8*3D
$GPRMC,155856.000,A,4516.4148,N,07552.3013,W,0.00,61.59,201223,,,D*43
$GPGGA,155857.000,4516.4147,N,07552.3013,W,2,06,1.6,100.1,M,-34.3,M,2.0,0000*46
$GPGSA,M,3,28,31,32,03,26,04,,,,,,,2.5,1.6,1.8*3D
$GPRMC,155857.000,A,4516.4147,N,07552.3013,W,0.33,61.59,201223,,,D*4D
$GPGGA,155858.000,4516.4146,N,07552.3015,W,2,06,1.6,100.2,M,-34.3,M,2.0,0000*4D
$GPGSA,M,3,28,31,32,03,26,04,,,,,,,2.5,1.6,1.8*3D
$GPGSV,3,1,12,28,74,032,46,31,72,278,44,32,44,115,46,03,40,298,49*77
$GPGSV,3,2,12,26,38,191,43,04,09,299,47,01,06,259,44,10,02,167,20*7E
$GPGSV,3,3,12,12,01,034,33,48,19,238,42,14,53,105,,25,43,181,*7B
$GPRMC,155858.000,A,4516.4146,N,07552.3015,W,0.93,61.59,201223,,,D*4F
$GPGGA,155859.000,4516.4144,N,07552.3019,W,2,06,1.6,100.3,M,-34.3,M,2.0,0000*43
$GPGSA,M,3,28,31,32,03,26,04,,,,,,,2.5,1.6,1.8*3D
$GPRMC,155859.000,A,4516.4144,N,07552.3019,W,1.08,61.59,201223,,,D*43
$GPGGA,155900.000,4516.4141,N,07552.3023,W,2,06,1.6,100.4,M,-34.3,M,3.0,0000*44
$GPGSA,M,3,28,31,32,03,26,04,,,,,,,2.5,1.6,1.8*3D
$GPRMC,155900.000,A,4516.4141,N,07552.3023,W,1.40,228.81,201223,,,D*74
$GPGGA,155901.000,4516.4138,N,07552.3028,W,2,06,1.6,100.5,M,-34.3,M,4.0,0000*46
$GPGSA,M,3,28,31,32,03,26,04,,,,,,,2.5,1.6,1.8*3D
$GPRMC,155901.000,A,4516.4138,N,07552.3028,W,1.81,223.38,201223,,,D*74
$GPGGA,155902.000,4516.4133,N,07552.3033,W,2,06,1.6,100.7,M,-34.3,M,2.0,0000*40
$GPGSA,M,3,28,31,32,03,26,04,,,,,,,2.5,1.6,1.8*3D
$GPRMC,155902.000,A,4516.4133,N,07552.3033,W,2.21,214.38,201223,,,D*7B
$GPGGA,155903.000,4516.4127,N,07552.3037,W,2,06,1.6,100.8,M,-34.3,M,2.0,0000*4F
$GPGSA,M,3,28,31,32,03,26,04,,,,,,,2.5,1.6,1.8*3D
$GPGSV,3,1,12,28,74,032,45,31,72,278,46,32,44,115,46,03,40,298,49*76
$GPGSV,3,2,12,26,38,191,44,04,09,299,46,01,06,259,44,10,02,167,23*7B
$GPGSV,3,3,12,12,01,034,33,48,19,238,43,14,53,105,,25,43,181,*7A
$GPRMC,155903.000,A,4516.4127,N,07552.3037,W,2.19,203.41,201223,,,D*78
$GPGGA,155904.000,4516.4123,N,07552.3038,W,2,06,1.6,100.9,M,-34.3,M,2.0,0000*42
$GPGSA,M,3,28,31,32,03,26,04,,,,,,,2.5,1.6,1.8*3D
$GPRMC,155904.000,A,4516.4123,N,07552.3038,W,0.76,203.41,201223,,,D*7F
$GPGGA,155905.000,4516.4123,N,07552.3038,W,2,06,1.6,100.8,M,-34.3,M,2.0,0000*42
$GPGSA,M,3,28,31,32,03,26,04,,,,,,,2.5,1.6,1.8*3D
$GPRMC,155905.000,A,4516.4123,N,07552.3038,W,0.01,203.41,201223,,,D*7E
$GPGGA,155906.000,4516.4123,N,07552.3037,W,2,06,1.6,100.9,M,-34.3,M,3.0,0000*4E
$GPGSA,M,3,28,31,32,03,26,04,,,,,,,2.5,1.6,1.8*3D
$GPRMC,155906.000,A,4516.4123,N,07552.3037,W,0.48,203.41,201223,,,D*7F
$GPGGA,155907.000,4516.4126,N,07552.3038,W,2,06,1.6,100.9,M,-34.3,M,2.0,0000*44
$GPGSA,M,3,28,31,32,03,26,04,,,,,,,2.5,1.6,1.8*3D
$GPRMC,155907.000,A,4516.4126,N,07552.3038,W,1.80,314.16,201223,,,D*74
$GPGGA,155908.000,4516.4133,N,07552.3040,W,2,06,1.6,101.0,M,-34.3,M,3.0,0000*49
$GPGSA,M,3,28,31,32,03,26,04,,,,,,,2.5,1.6,1.8*3D
$GPGSV,3,1,12,28,74,032,45,31,72,278,47,32,44,115,45,03,40,298,49*74
$GPGSV,3,2,12,26,38,191,44,04,09,299,44,01,06,259,44,10,02,167,26*7C
$GPGSV,3,3,12,12,01,034,27,48,19,238,44,14,53,105,,25,43,181,*78
$GPRMC,155908.000,A,4516.4133,N,07552.3040,W,2.82,333.98,201223,,,D*72
$GPGGA,155909.000,4516.4140,N,07552.3046,W,2,06,1.6,101.1,M,-34.3,M,2.0,0000*4A
$GPGSA,M,3,28,31,32,03,26,04,,,,,,,2.5,1.6,1.8*3D
$GPRMC,155909.000,A,4516.4140,N,07552.3046,W,2.82,328.77,201223,,,D*7A
$GPGGA,155910.000,4516.4144,N,07552.3051,W,2,06,1.6,101.2,M,-34.3,M,2.0,0000*43
$GPGSA,M,3,28,31,32,03,26,04,,,,,,,2.5,1.6,1.8*3D
$GPRMC,155910.000,A,4516.4144,N,07552.3051,W,1.10,328.77,201223,,,D*78
$GPGGA,155911.000,4516.4144,N,07552.3051,W,2,06,1.6,101.2,M,-34.3,M,2.0,0000*42
$GPGSA,M,3,28,31,32,03,26,04,,,,,,,2.5,1.6,1.8*3D
$GPRMC,155911.000,A,4516.4144,N,07552.3051,W,0.02,328.77,201223,,,D*7B
$GPGGA,155912.000,4516.4144,N,07552.3051,W,2,06,1.6,101.2,M,-34.3,M,3.0,0000*40
$GPGSA,M,3,28,31,32,03,26,04,,,,,,,2.5,1.6,1.8*3D
$GPRMC,155912.000,A,4516.4144,N,07552.3051,W,0.00,328.77,201223,,,D*7A
$GPGGA,155913.000,4516.4144,N,07552.3051,W,2,06,1.6,101.2,M,-34.3,M,4.0,0000*46
$GPGSA,M,3,28,31,32,03,26,04,,,,,,,2.5,1.6,1.8*3D
$GPGSV,3,1,12,28,74,032,45,31,72,278,46,32,44,115,46,03,40,298,49*76
$GPGSV,3,2,12,26,38,191,44,04,09,299,43,01,06,259,45,10,02,167,38*75
$GPGSV,3,3,12,12,01,034,25,48,19,238,46,14,53,105,,25,43,181,*78
$GPRMC,155913.000,A,4516.4144,N,07552.3051,W,0.00,328.77,201223,,,D*7B
$GPGGA,155914.000,4516.4144,N,07552.3051,W,2,06,1.6,101.2,M,-34.3,M,5.0,0000*40
$GPGSA,M,3,28,31,32,03,26,04,,,,,,,2.5,1.6,1.8*3D
$GPRMC,155914.000,A,4516.4144,N,07552.3051,W,0.00,328.77,201223,,,D*7C
$GPGGA,155915.000,4516.4144,N,07552.3051,W,2,06,1.6,101.2,M,-34.3,M,2.0,0000*46
$GPGSA,M,3,28,31,32,03,26,04,,,,,,,2.5,1.6,1.8*3D
$GPRMC,155915.000,A,4516.4144,N,07552.3051,W,0.00,328.77,201223,,,D*7D
$GPGGA,155916.000,4516.4144,N,07552.3051,W,2,06,1.6,101.2,M,-34.3,M,2.0,0000*45
$GPGSA,M,3,28,31,32,03,26,04,,,,,,,2.5,1.6,1.8*3D
$GPRMC,155916.000,A,4516.4144,N,07552.3051,W,0.00,328.77,201223,,,D*7E
$GPGGA,155917.000,4516.4144,N,07552.3051,W,2,06,1.6,101.2,M,-34.3,M,2.0,0000*44
$GPGSA,M,3,28,31,32,03,26,04,,,,,,,2.5,1.6,1.8*3D
$GPRMC,155917.000,A,4516.4144,N,07552.3051,W,0.00,328.77,201223,,,D*7F
$GPGGA,155918.000,4516.4146,N,07552.3053,W,2,06,1.6,101.2,M,-34.3,M,3.0,0000*4A
$GPGSA,M,3,28,31,32,03,26,04,,,,,,,2.5,1.6,1.8*3D
$GPGSV,3,1,12,28,74,032,45,31,72,278,46,32,44,115,46,03,40,298,48*77
$GPGSV,3,2,12,26,38,191,45,04,09,299,43,01,06,259,44,10,02,167,38*75
$GPGSV,3,3,12,12,01,034,25,48,19,238,46,14,53,105,,25,43,181,*78
$GPRMC,155918.000,A,4516.4146,N,07552.3053,W,1.40,326.33,201223,,,D*7B
$GPGGA,155919.000,4516.4151,N,07552.3061,W,2,06,1.6,101.5,M,-34.3,M,4.0,0000*4C
$GPGSA,M,3,28,31,32,03,26,04,,,,,,,2.5,1.6,1.8*3D
$GPRMC,155919.000,A,4516.4151,N,07552.3061,W,4.48,314.28,201223,,,D*7B
$GPGGA,155920.000,4516.4158,N,07552.3080,W,2,06,1.6,101.8,M,-34.3,M,2.0,0000*4B
$GPGSA,M,3,28,31,32,03,26,04,,,,,,,2.5,1.6,1.8*3D
$GPRMC,155920.000,A,4516.4158,N,07552.3080,W,6.27,292.73,201223,,,D*7D
$GPGGA,155921.000,4516.4160,N,07552.3107,W,2,06,1.6,101.9,M,-34.3,M,2.0,0000*4E
$GPGSA,M,3,28,31,32,03,26,04,,,,,,,2.5,1.6,1.8*3D
$GPRMC,155921.000,A,4516.4160,N,07552.3107,W,7.06,268.31,201223,,,D*78
$GPGGA,155922.000,4516.4156,N,07552.3132,W,2,06,1.6,102.0,M,-34.3,M,2.0,0000*44
$GPGSA,M,3,28,31,32,03,26,04,,,,,,,2.5,1.6,1.8*3D
$GPRMC,155922.000,A,4516.4156,N,07552.3132,W,5.63,256.06,201223,,,D*70
$GPGGA,155923.000,4516.4152,N,07552.3148,W,2,06,1.6,102.2,M,-34.3,M,2.0,0000*4E
$GPGSA,M,3,28,31,32,03,26,04,,,,,,,2.5,1.6,1.8*3D
$GPGSV,3,1,12,28,74,032,45,31,72,278,46,32,44,115,47,03,40,298,44*7A
$GPGSV,3,2,12,26,38,191,48,04,09,299,31,01,06,259,38,10,02,167,37*79
$GPGSV,3,3,12,12,01,034,34,48,19,238,46,14,53,105,,25,43,181,*78
$GPRMC,155923.000,A,4516.4152,N,07552.3148,W,2.46,253.14,201223,,,D*7E
$GPGGA,155924.000,4516.4149,N,07552.3158,W,2,06,1.6,102.4,M,-34.3,M,3.0,0000*45
$GPGSA,M,3,28,31,32,03,26,04,,,,,,,2.5,1.6,1.8*3D
$GPRMC,155924.000,A,4516.4149,N,07552.3158,W,2.45,251.01,201223,,,D*77
$GPGGA,155925.000,4516.4146,N,07552.3170,W,2,06,1.6,102.4,M,-34.3,M,4.0,0000*46
$GPGSA,M,3,28,31,32,03,26,04,,,,,,,2.5,1.6,1.8*3D
$GPRMC,155925.000,A,4516.4146,N,07552.3170,W,3.68,251.59,201223,,,D*70
$GPGGA,155926.000,4516.4143,N,07552.3189,W,2,06,1.6,102.6,M,-34.3,M,5.0,0000*45
$GPGSA,M,3,28,31,32,03,26,04,,,,,,,2.5,1.6,1.8*3D
$GPRMC,155926.000,A,4516.4143,N,07552.3189,W,5.73,259.45,201223,,,D*79
$GPGGA,155927.000,4516.4144,N,07552.3216,W,2,06,1.6,102.6,M,-34.3,M,2.0,0000*41
$GPGSA,M,3,28,31,32,03,26,04,,,,,,,2.5,1.6,1.8*3D
$GPRMC,155927.000,A,4516.4144,N,07552.3216,W,7.40,276.88,201223,,,D*74
$GPGGA,155928.000,4516.4155,N,07552.3246,W,2,06,1.6,102.5,M,-34.3,M,2.0,0000*48
$GPGSA,M,3,28,31,32,03,26,04,,,,,,,2.5,1.6,1.8*3D
$GPGSV,3,1,12,28,74,032,45,31,72,278,46,32,44,115,47,03,40,298,44*7A
$GPGSV,3,2,12,26,38,191,48,04,09,299,39,01,06,259,38,10,02,167,28*7F
$GPGSV,3,3,12,12,01,034,34,48,19,238,45,14,53,105,,25,43,181,*7B
$GPRMC,155928.000,A,4516.4155,N,07552.3246,W,9.59,301.30,201223,,,D*7A
$GPGGA,155929.000,4516.4177,N,07552.3279,W,2,06,1.6,102.3,M,-34.3,M,2.0,0000*43
$GPGSA,M,3,28,31,32,03,26,04,,,,,,,2.5,1.6,1.8*3D
$GPRMC,155929.000,A,4516.4177,N,07552.3279,W,12.45,314.84,201223,,,D*4B
$GPGGA,155930.000,4516.4207,N,07552.3317,W,2,06,1.6,102.1,M,-34.3,M,3.0,0000*45
$GPGSA,M,3,28,31,32,03,26,04,,,,,,,2.5,1.6,1.8*3D
$GPRMC,155930.000,A,4516.4207,N,07552.3317,W,15.10,318.56,201223,,,D*4A
$GPGGA,155931.000,4516.4241,N,07552.3358,W,2,06,1.6,102.0,M,-34.3,M,4.0,0000*4B
$GPGSA,M,3,28,31,32,03,26,04,,,,,,,2.5,1.6,1.8*3D
$GPRMC,155931.000,A,4516.4241,N,07552.3358,W,16.18,319.50,201223,,,D*4E
$GPGGA,155932.000,4516.4276,N,07552.3400,W,2,06,1.6,101.9,M,-34.3,M,5.0,0000*4D
$GPGSA,M,3,28,31,32,03,26,04,,,,,,,2.5,1.6,1.8*3D
$GPRMC,155932.000,A,4516.4276,N,07552.3400,W,16.36,319.75,201223,,,D*48
$GPGGA,155933.000,4516.4311,N,07552.3442,W,2,06,1.6,101.8,M,-34.3,M,2.0,0000*4C
$GPGSA,M,3,28,31,32,03,26,04,,,,,,,2.5,1.6,1.8*3D
$GPGSV,3,1,12,28,74,032,45,31,72,278,46,32,44,115,47,03,40,298,47*79
$GPGSV,3,2,12,26,38,191,47,04,09,299,40,01,06,259,37,10,02,167,29*70
$GPGSV,3,3,12,12,01,034,29,48,19,238,41,14,53,105,,25,43,181,*73
$GPRMC,155933.000,A,4516.4311,N,07552.3442,W,15.73,319.56,201223,,,D*4C
$GPGGA,155934.000,4516.4343,N,07552.3481,W,2,06,1.6,101.6,M,-34.3,M,2.0,0000*4D
$GPGSA,M,3,28,31,32,03,26,04,,,,,,,2.5,1.6,1.8*3D
$GPRMC,155934.000,A,4516.4343,N,07552.3481,W,13.60,319.22,201223,,,D*44
$PSRF156,23,1,0*09
$GPGGA,155935.000,4516.4368,N,07552.3512,W,2,06,1.6,101.5,M,-34.3,M,2.0,0000*4D
$GPGSA,M,3,28,31,32,03,26,04,,,,,,,2.5,1.6,1.8*3D
$GPRMC,155935.000,A,4516.4368,N,07552.3512,W,10.04,319.54,201223,,,D*47
$GPGGA,155936.000,4516.4386,N,07552.3534,W,2,06,1.6,101.4,M,-34.3,M,2.0,0000*4B
$GPGSA,M,3,28,31,32,03,26,04,,,,,,,2.5,1.6,1.8*3D
$GPRMC,155936.000,A,4516.4386,N,07552.3534,W,6.95,319.52,201223,,,D*79
$GPGGA,155937.000,4516.4400,N,07552.3551,W,2,06,1.6,101.5,M,-34.3,M,3.0,0000*40
$GPGSA,M,3,28,31,32,03,26,04,,,,,,,2.5,1.6,1.8*3D
$GPRMC,155937.000,A,4516.4400,N,07552.3551,W,6.35,319.60,201223,,,D*79
$GPGGA,155938.000,4516.4413,N,07552.3568,W,2,06,1.6,101.4,M,-34.3,M,4.0,0000*41
$GPGSA,M,3,28,31,32,03,26,04,,,,,,,2.5,1.6,1.8*3D
$GPGSV,3,1,12,28,74,033,45,31,72,279,45,32,43,116,47,03,40,298,48*71
$GPGSV,3,2,12,26,38,191,46,04,09,299,40,01,06,259,37,10,02,167,29*71
$GPGSV,3,3,12,12,00,033,26,48,19,238,44,14,53,105,,25,44,181,*78
$GPRMC,155938.000,A,4516.4413,N,07552.3568,W,6.19,319.79,201223,,,D*78
$GPGGA,155939.000,4516.4426,N,07552.3583,W,2,06,1.6,101.4,M,-34.3,M,2.0,0000*45
$GPGSA,M,3,28,31,32,03,26,04,,,,,,,2.5,1.6,1.8*3D
$GPRMC,155939.000,A,4516.4426,N,07552.3583,W,6.21,321.05,201223,,,D*71
