$GPGGA,155531.000,4516.4148,N,07552.3011,W,2,06,1.6,100.0,M,-34.3,M,4.0,0000*41
$GPGSA,M,3,28,31,32,03,26,04,,,,,,,2.4,1.6,1.8*3C
$GPRMC,155531.000,A,4516.4148,N,07552.3011,W,0.00,61.59,201223,,,D*4D
$GPGGA,155532.000,4516.4148,N,07552.3011,W,2,06,1.6,100.0,M,-34.3,M,5.0,0000*43
$GPGSA,M,3,28,31,32,03,26,04,,,,,,,2.4,1.6,1.8*3C
$GPRMC,155532.000,A,4516.4148,N,07552.3011,W,0.00,61.59,201223,,,D*4E
$GPGGA,155533.000,4516.4148,N,07552.3011,W,2,06,1.6,100.0,M,-34.3,M,2.0,0000*45
$GPGSA,M,3,28,31,32,03,26,04,,,,,,,2.4,1.6,1.8*3C
$GPGSV,3,1,12,28,76,025,44,31,70,272,46,32,46,113,48,03,38,301,48*7E
$GPGSV,3,2,12,26,35,191,44,04,06,298,38,01,08,261,34,10,05,167,22*75
$GPGSV,3,3,12,12,03,034,27,48,19,238,42,14,56,102,,25,40,181,*7D
$GPRMC,155533.000,A,4516.4148,N,07552.3011,W,0.00,61.59,201223,,,D*4F
$GPGGA,155534.000,4516.4148,N,07552.3011,W,2,06,1.6,100.0,M,-34.3,M,2.0,0000*42
$GPGSA,M,3,28,31,32,03,26,04,,,,,,,2.4,1.6,1.8*3C
$GPRMC,155534.000,A,4516.4148,N,07552.3011,W,0.00,61.59,201223,,,D*48
$GPGGA,155535.000,4516.4148,N,07552.3011,W,2,06,1.6,100.0,M,-34.3,M,2.0,0000*43
$GPGSA,M,3,28,31,32,03,26,04,,,,,,,2.4,1.6,1.8*3C
$GPRMC,155535.000,A,4516.4148,N,07552.3011,W,0.00,61.59,201223,,,D*49
$GPGGA,155536.000,4516.4148,N,07552.3011,W,2,06,1.6,100.0,M,-34.3,M,3.0,0000*41
$GPGSA,M,3,28,31,32,03,26,04,,,,,,,2.4,1.6,1.8*3C
$GPRMC,155536.000,A,4516.4148,N,07552.3011,W,0.00,61.59,201223,,,D*4A
$GPGGA,155537.000,4516.4148,N,07552.3011,W,2,06,1.6,100.0,M,-34.3,M,4.0,0000*47
$GPGSA,M,3,28,31,32,03,26,04,,,,,,,2.4,1.6,1.8*3C
$GPRMC,155537.000,A,4516.4148,N,07552.3011,W,0.00,61.59,201223,,,D*4B
$GPGGA,155538.000,4516.4148,N,07552.3011,W,2,06,1.6,100.0,M,-34.3,M,2.0,0000*4E
$GPGSA,M,3,28,31,32,03,26,04,,,,,,,2.4,1.6,1.8*3C
$GPGSV,3,1,12,28,75,028,45,31,71,275,46,32,45,114,48,03,39,300,48*73
$GPGSV,3,2,12,26,36,191,44,04,08,299,39,01,07,260,34,10,03,167,22*70
$GPGSV,3,3,12,12,02,034,30,48,19,238,42,14,55,103,,25,42,181,*7A
$GPRMC,155538.000,A,4516.4148,N,07552.3011,W,0.00,61.59,201223,,,D*44
$GPGGA,155539.000,4516.4148,N,07552.3011,W,2,06,1.6,100.0,M,-34.3,M,2.0,0000*4F
$GPGSA,M,3,28,31,32,03,26,04,,,,,,,2.4,1.6,1.8*3C
$GPRMC,155539.000,A,4516.4148,N,07552.3011,W,0.00,61.59,201223,,,D*45
$GPGGA,155540.000,4516.4148,N,07552.3011,W,2,06,1.6,100.0,M,-34.3,M,2.0,0000*41
$GPGSA,M,3,28,31,32,03,26,04,,,,,,,2.4,1.6,1.8*3C
$GPRMC,155540.000,A,4516.4148,N,07552.3011,W,0.00,61.59,201223,,,D*4B
$GPGGA,155541.000,4516.4148,N,07552.3011,W,2,06,1.6,100.0,M,-34.3,M,2.0,0000*40
$GPGSA,M,3,28,31,32,03,26,04,,,,,,,2.4,1.6,1.8*3C
$GPRMC,155541.000,A,4516.4148,N,07552.3011,W,0.00,61.59,201223,,,D*4A
$GPGGA,155542.000,4516.4148,N,07552.3011,W,2,06,1.6,100.0,M,-34.3,M,3.0,0000*42
$GPGSA,M,3,28,31,32,03,26,04,,,,,,,2.4,1.6,1.8*3C
$GPRMC,155542.000,A,4516.4148,N,07552.3011,W,0.00,61.59,201223,,,D*49
$GPGGA,155543.000,4516.4148,N,07552.3011,W,2,06,1.6,100.0,M,-34.3,M,2.0,0000*42
$GPGSA,M,3,28,31,32,03,26,04,,,,,,,2.4,1.6,1.8*3C
$GPGSV,3,1,12,28,75,028,45,31,71,275,46,32,45,114,48,03,39,300,48*73
$GPGSV,3,2,12,26,36,191,44,04,08,299,38,01,07,260,34,10,03,167,21*72
$GPGSV,3,3,12,12,02,034,31,48,19,238,41,14,55,103,,25,42,181,*78
$GPRMC,155543.000,A,4516.4148,N,07552.3011,W,0.00,61.59,201223,,,D*48
$GPGGA,155544.000,4516.4148,N,07552.3011,W,2,06,1.6,100.0,M,-34.3,M,2.0,0000*45
$GPGSA,M,3,28,31,32,03,26,04,,,,,,,2.4,1.6,1.8*3C
$GPRMC,155544.000,A,4516.4148,N,07552.3011,W,0.00,61.59,201223,,,D*4F
$GPGGA,155545.000,4516.4148,N,07552.3011,W,2,06,1.6,100.0,M,-34.3,M,2.0,0000*44
$GPGSA,M,3,28,31,32,03,26,04,,,,,,,2.4,1.6,1.8*3C
$GPRMC,155545.000,A,4516.4148,N,07552.3011,W,0.00,61.59,201223,,,D*4E
$GPGGA,155546.000,4516.4148,N,07552.3011,W,2,06,1.6,100.0,M,-34.3,M,2.0,0000*47
$GPGSA,M,3,28,31,32,03,26,04,,,,,,,2.4,1.6,1.8*3C
$GPRMC,155546.000,A,4516.4148,N,07552.3011,W,0.00,61.59,201223,,,D*4D
$GPGGA,155547.000,4516.4148,N,07552.3011,W,2,06,1.6,100.0,M,-34.3,M,2.0,0000*46
$GPGSA,M,3,28,31,32,03,26,04,,,,,,,2.4,1.6,1.8*3C
$GPRMC,155547.000,A,4516.4148,N,07552.3011,W,0.00,61.59,201223,,,D*4C
$GPGGA,155548.000,4516.4148,N,07552.3011,W,2,06,1.6,100.0,M,-34.3,M,3.0,0000*48
$GPGSA,M,3,28,31,32,03,26,04,,,,,,,2.4,1.6,1.8*3C
$GPGSV,3,1,12,28,75,028,45,31,71,275,46,32,45,114,48,03,39,300,48*73
$GPGSV,3,2,12,26,36,191,44,04,08,299,38,01,07,260,34,10,03,167,21*72
$GPGSV,3,3,12,12,02,034,31,48,19,238,41,14,55,103,,25,42,181,*78
$GPRMC,155548.000,A,4516.4148,N,07552.3011,W,0.00,61.59,201223,,,D*43
$GPGGA,155549.000,4516.4148,N,07552.3011,W,2,06,1.6,100.0,M,-34.3,M,4.0,0000*4E
$GPGSA,M,3,28,31,32,03,26,04,,,,,,,2.4,1.6,1.8*3C
$GPRMC,155549.000,A,4516.4148,N,07552.3011,W,0.00,61.59,201223,,,D*42
$GPGGA,155550.000,4516.4148,N,07552.3011,W,2,06,1.6,100.0,M,-34.3,M,2.0,0000*40
$GPGSA,M,3,28,31,32,03,26,04,,,,,,,2.4,1.6,1.8*3C
$GPRMC,155550.000,A,4516.4148,N,07552.3011,W,0.00,61.59,201223,,,D*4A
$GPGGA,155551.000,4516.4148,N,07552.3011,W,2,06,1.6,100.0,M,-34.3,M,2.0,0000*41
$GPGSA,M,3,28,31,32,03,26,04,,,,,,,2.4,1.6,1.8*3C
$GPRMC,155551.000,A,4516.4148,N,07552.3011,W,0.00,61.59,201223,,,D*4B
$GPGGA,155552.000,4516.4148,N,07552.3011,W,2,06,1.6,100.0,M,-34.3,M,2.0,0000*42
$GPGSA,M,3,28,31,32,03,26,04,,,,,,,2.4,1.6,1.8*3C
$GPRMC,155552.000,A,4516.4148,N,07552.3011,W,0.00,61.59,201223,,,D*48
$GPGGA,155553.000,4516.4148,N,07552.3011,W,2,06,1.6,100.0,M,-34.3,M,2.0,0000*43
$GPGSA,M,3,28,31,32,03,26,04,,,,,,,2.4,1.6,1.8*3C
$GPGSV,3,1,12,28,75,028,45,31,71,275,46,32,45,114,47,03,39,300,48*7C
$GPGSV,3,2,12,26,36,191,43,04,08,299,38,01,07,260,34,10,03,167,20*74
$GPGSV,3,3,12,12,02,034,30,48,19,238,41,14,55,103,,25,42,181,*79
$GPRMC,155553.000,A,4516.4148,N,07552.3011,W,0.00,61.59,201223,,,D*49
$GPGGA,155554.000,4516.4148,N,07552.3011,W,2,06,1.6,100.0,M,-34.3,M,2.0,0000*44
$GPGSA,M,3,28,31,32,03,26,04,,,,,,,2.4,1.6,1.8*3C
$GPRMC,155554.000,A,4516.4148,N,07552.3011,W,0.00,61.59,201223,,,D*4E
$GPGGA,155555.000,4516.4148,N,07552.3011,W,2,06,1.6,100.0,M,-34.3,M,2.0,0000*45
$GPGSA,M,3,28,31,32,03,26,04,,,,,,,2.4,1.6,1.8*3C
$GPRMC,155555.000,A,4516.4148,N,07552.3011,W,0.00,61.59,201223,,,D*4F
$GPGGA,155556.000,4516.4148,N,07552.3011,W,2,06,1.6,100.0,M,-34.3,M,3.0,0000*47
$GPGSA,M,3,28,31,32,03,26,04,,,,,,,2.4,1.6,1.8*3C
$GPRMC,155556.000,A,4516.4148,N,07552.3011,W,0.00,61.59,201223,,,D*4C
$GPGGA,155557.000,4516.4148,N,07552.3011,W,2,06,1.6,100.0,M,-34.3,M,2.0,0000*47
$GPGSA,M,3,28,31,32,03,26,04,,,,,,,2.4,1.6,1.8*3C
$GPRMC,155557.000,A,4516.4148,N,07552.3011,W,0.00,61.59,201223,,,D*4D
$GPGGA,155558.000,4516.4148,N,07552.3011,W,2,06,1.6,100.0,M,-34.3,M,2.0,0000*48
$GPGSA,M,3,28,31,32,03,26,04,,,,,,,2.4,1.6,1.8*3C
$GPGSV,3,1,12,28,75,028,45,31,71,275,46,32,45,114,47,03,39,300,48*7C
$GPGSV,3,2,12,26,36,191,43,04,08,299,38,01,07,260,34,10,03,167,19*7E
$GPGSV,3,3,12,12,02,034,30,48,19,238,41,14,55,103,,25,42,181,*79
$GPRMC,155558.000,A,4516.4148,N,07552.3011,W,0.00,61.59,201223,,,D*42
$GPGGA,155559.000,4516.4148,N,07552.3011,W,2,06,1.6,100.0,M,-34.3,M,2.0,0000*49
$GPGSA,M,3,28,31,32,03,26,04,,,,,,,2.4,1.6,1.8*3C
$GPRMC,155559.000,A,4516.4148,N,07552.3011,W,0.00,61.59,201223,,,D*43
$GPGGA,155600.000,4516.4148,N,07552.3011,W,2,06,1.6,100.0,M,-34.3,M,3.0,0000*47
$GPGSA,M,3,28,31,32,03,26,04,,,,,,,2.4,1.6,1.8*3C
$GPRMC,155600.000,A,4516.4148,N,07552.3011,W,0.00,61.59,201223,,,D*4C
$GPGGA,155601.000,4516.4148,N,07552.3011,W,2,06,1.6,100.0,M,-34.3,M,4.0,0000*41
$GPGSA,M,3,28,31,32,03,26,04,,,,,,,2.4,1.6,1.8*3C
$GPRMC,155601.000,A,4516.4148,N,07552.3011,W,0.00,61.59,201223,,,D*4D
$GPGGA,155602.000,4516.4148,N,07552.3011,W,2,06,1.6,100.0,M,-34.3,M,5.0,0000*43
$GPGSA,M,3,28,31,32,03,26,04,,,,,,,2.4,1.6,1.8*3C
$GPRMC,155602.000,A,4516.4148,N,07552.3011,W,0.00,61.59,201223,,,D*4E
$GPGGA,155603.000,4516.4148,N,07552.3011,W,2,06,1.6,100.0,M,-34.3,M,2.0,0000*45
$GPGSA,M,3,28,31,32,03,26,04,,,,,,,2.4,1.6,1.8*3C
$GPGSV,3,1,12,28,75,028,45,31,71,275,46,32,45,114,47,03,39,300,48*7C
$GPGSV,3,2,12,26,36,191,43,04,08,299,39,01,07,260,34,10,03,167,19*7F
$GPGSV,3,3,12,12,02,034,30,48,19,238,41,14,55,103,,25,42,181,*79
$GPRMC,155603.000,A,4516.4148,N,07552.3011,W,0.00,61.59,201223,,,D*4F
$GPGGA,155604.000,4516.4148,N,07552.3011,W,2,06,1.6,100.0,M,-34.3,M,2.0,0000*42
$GPGSA,M,3,28,31,32,03,26,04,,,,,,,2.4,1.6,1.8*3C
$GPRMC,155604.000,A,4516.4148,N,07552.3011,W,0.00,61.59,201223,,,D*48
$GPGGA,155605.000,4516.4148,N,07552.3011,W,2,06,1.6,100.0,M,-34.3,M,2.0,0000*43
$GPGSA,M,3,28,31,32,03,26,04,,,,,,,2.4,1.6,1.8*3C
$GPRMC,155605.000,A,4516.4148,N,07552.3011,W,0.00,61.59,201223,,,D*49
$GPGGA,155606.000,4516.4148,N,07552.3011,W,2,06,1.6,100.0,M,-34.3,M,3.0,0000*41
$GPGSA,M,3,28,31,32,03,26,04,,,,,,,2.4,1.6,1.8*3C
$GPRMC,155606.000,A,4516.4148,N,07552.3011,W,0.00,61.59,201223,,,D*4A
$GPGGA,155607.000,4516.4148,N,07552.3011,W,2,06,1.6,100.0,M,-34.3,M,4.0,0000*47
$GPGSA,M,3,28,31,32,03,26,04,,,,,,,2.4,1.6,1.8*3C
$GPRMC,155607.000,A,4516.4148,N,07552.3011,W,0.00,61.59,201223,,,D*4B
$GPGGA,155608.000,4516.4148,N,07552.3011,W,2,06,1.6,100.0,M,-34.3,M,5.0,0000*49
$GPGSA,M,3,28,31,32,03,26,04,,,,,,,2.4,1.6,1.8*3C
$GPGSV,3,1,12,28,75,028,45,31,71,275,46,32,45,114,47,03,39,300,48*7C
$GPGSV,3,2,12,26,36,191,43,04,08,299,39,01,07,260,34,10,03,167,17*71
$GPGSV,3,3,12,12,02,034,30,48,19,238,42,14,55,103,,25,42,181,*7A
$GPRMC,155608.000,A,4516.4148,N,07552.3011,W,0.00,61.59,201223,,,D*44
$GPGGA,155609.000,4516.4148,N,07552.3011,W,2,06,1.6,100.0,M,-34.3,M,2.0,0000*4F
$GPGSA,M,3,28,31,32,03,26,04,,,,,,,2.4,1.6,1.8*3C
$GPRMC,155609.000,A,4516.4148,N,07552.3011,W,0.00,61.59,201223,,,D*45
$GPGGA,155610.000,4516.4148,N,07552.3011,W,2,06,1.6,100.0,M,-34.3,M,2.0,0000*47
$GPGSA,M,3,28,31,32,03,26,04,,,,,,,2.4,1.6,1.8*3C
$GPRMC,155610.000,A,4516.4148,N,07552.3011,W,0.00,61.59,201223,,,D*4D
$GPGGA,155611.000,4516.4148,N,07552.3011,W,2,06,1.6,100.0,M,-34.3,M,2.0,0000*46
$GPGSA,M,3,28,31,32,03,26,04,,,,,,,2.4,1.6,1.8*3C
$GPRMC,155611.000,A,4516.4148,N,07552.3011,W,0.00,61.59,201223,,,D*4C
$GPGGA,155612.000,4516.4148,N,07552.3011,W,2,06,1.6,100.0,M,-34.3,M,3.0,0000*44
$GPGSA,M,3,28,31,32,03,26,04,,,,,,,2.4,1.6,1.8*3C
$GPRMC,155612.000,A,4516.4148,N,07552.3011,W,0.00,61.59,201223,,,D*4F
$GPGGA,155613.000,4516.4148,N,07552.3011,W,2,06,1.6,100.0,M,-34.3,M,4.0,0000*42
$GPGSA,M,3,28,31,32,03,26,04,,,,,,,2.4,1.6,1.8*3C
$GPGSV,3,1,12,28,75,028,45,31,71,275,47,32,45,114,48,03,39,300,48*72
$GPGSV,3,2,12,26,36,191,43,04,08,299,40,01,07,260,35,10,03,167,16*7F
$GPGSV,3,3,12,12,02,034,22,48,19,238,42,14,55,103,,25,42,181,*79
$GPRMC,155613.000,A,4516.4148,N,07552.3011,W,0.00,61.59,201223,,,D*4E
$GPGGA,155614.000,4516.4148,N,07552.3011,W,2,06,1.6,100.0,M,-34.3,M,5.0,0000*44
$GPGSA,M,3,28,31,32,03,26,04,,,,,,,2.4,1.6,1.8*3C
$GPRMC,155614.000,A,4516.4148,N,07552.3011,W,0.00,61.59,201223,,,D*49
$GPGGA,155615.000,4516.4148,N,07552.3011,W,2,06,1.6,100.0,M,-34.3,M,2.0,0000*42
$GPGSA,M,3,28,31,32,03,26,04,,,,,,,2.4,1.6,1.8*3C
$GPRMC,155615.000,A,4516.4148,N,07552.3011,W,0.00,61.59,201223,,,D*48
$GPGGA,155616.000,4516.4148,N,07552.3011,W,2,06,1.6,100.0,M,-34.3,M,2.0,0000*41
$GPGSA,M,3,28,31,32,03,26,04,,,,,,,2.4,1.6,1.8*3C
$GPRMC,155616.000,A,4516.4148,N,07552.3011,W,0.00,61.59,201223,,,D*4B
$GPGGA,155617.000,4516.4148,N,07552.3011,W,2,06,1.6,100.0,M,-34.3,M,2.0,0000*40
$GPGSA,M,3,28,31,32,03,26,04,,,,,,,2.4,1.6,1.8*3C
$GPRMC,155617.000,A,4516.4148,N,07552.3011,W,0.00,61.59,201223,,,D*4A
$GPGGA,155618.000,4516.4148,N,07552.3011,W,2,06,1.6,100.0,M,-34.3,M,3.0,0000*4E
$GPGSA,M,3,28,31,32,03,26,04,,,,,,,2.4,1.6,1.8*3C
$GPGSV,3,1,12,28,75,028,45,31,71,275,46,32,45,114,48,03,39,300,48*73
$GPGSV,3,2,12,26,36,191,43,04,08,299,41,01,07,260,36,10,03,167,17*7C
$GPGSV,3,3,12,12,02,034,24,48,19,238,42,14,55,103,,25,42,181,*7F
$GPRMC,155618.000,A,4516.4148,N,07552.3011,W,0.00,61.59,201223,,,D*45
$GPGGA,155619.000,4516.4148,N,07552.3011,W,2,06,1.6,100.0,M,-34.3,M,4.0,0000*48
$GPGSA,M,3,28,31,32,03,26,04,,,,,,,2.4,1.6,1.8*3C
$GPRMC,155619.000,A,4516.4148,N,07552.3011,W,0.00,61.59,201223,,,D*44
$GPGGA,155620.000,4516.4148,N,07552.3011,W,2,06,1.6,100.0,M,-34.3,M,5.0,0000*43
$GPGSA,M,3,28,31,32,03,26,04,,,,,,,2.4,1.6,1.8*3C
$GPRMC,155620.000,A,4516.4148,N,07552.3011,W,0.00,61.59,201223,,,D*4E
$GPGGA,155621.000,4516.4148,N,07552.3011,W,2,06,1.6,100.0,M,-34.3,M,2.0,0000*45
$GPGSA,M,3,28,31,32,03,26,04,,,,,,,2.4,1.6,1.8*3C
$GPRMC,155621.000,A,4516.4148,N,07552.3011,W,0.00,61.59,201223,,,D*4F
$GPGGA,155622.000,4516.4148,N,07552.3011,W,2,06,1.6,100.0,M,-34.3,M,2.0,0000*46
$GPGSA,M,3,28,31,32,03,26,04,,,,,,,2.4,1.6,1.8*3C
$GPRMC,155622.000,A,4516.4148,N,07552.3011,W,0.00,61.59,201223,,,D*4C
$GPGGA,155623.000,4516.4148,N,07552.3011,W,2,06,1.6,100.0,M,-34.3,M,2.0,0000*47
$GPGSA,M,3,28,31,32,03,26,04,,,,,,,2.4,1.6,1.8*3C
$GPGSV,3,1,12,28,75,028,45,31,71,275,46,32,45,114,48,03,39,300,48*73
$GPGSV,3,2,12,26,36,191,43,04,08,299,41,01,07,260,36,10,03,167,18*73
$GPGSV,3,3,12,48,19,238,42,14,55,103,,25,42,181,,22,24,188,*78
$GPRMC,155623.000,A,4516.4148,N,07552.3011,W,0.00,61.59,201223,,,D*4D
$GPGGA,155624.000,4516.4149,N,07552.3012,W,2,06,1.6,100.0,M,-34.3,M,2.0,0000*42
$GPGSA,M,3,28,31,32,03,26,04,,,,,,,2.4,1.6,1.8*3C
$GPRMC,155624.000,A,4516.4149,N,07552.3012,W,0.00,61.59,201223,,,D*48
$GPGGA,155625.000,4516.4149,N,07552.3012,W,2,06,1.6,100.0,M,-34.3,M,2.0,0000*43
$GPGSA,M,3,28,31,32,03,26,04,,,,,,,2.4,1.6,1.8*3C
$GPRMC,155625.000,A,4516.4149,N,07552.3012,W,0.00,61.59,201223,,,D*49
$GPGGA,155626.000,4516.4149,N,07552.3012,W,2,06,1.6,99.9,M,-34.3,M,3.0,0000*79
$GPGSA,M,3,28,31,32,03,26,04,,,,,,,2.4,1.6,1.8*3C
$GPRMC,155626.000,A,4516.4149,N,07552.3012,W,0.00,61.59,201223,,,D*4A
$GPGGA,155627.000,4516.4149,N,07552.3012,W,2,06,1.6,99.9,M,-34.3,M,2.0,0000*79
$GPGSA,M,3,28,31,32,03,26,04,,,,,,,2.4,1.6,1.8*3C
$GPRMC,155627.000,A,4516.4149,N,07552.3012,W,0.00,61.59,201223,,,D*4B
$GPGGA,155628.000,4516.4149,N,07552.3012,W,2,06,1.6,99.9,M,-34.3,M,2.0,0000*76
$GPGSA,M,3,28,31,32,03,26,04,,,,,,,2.4,1.6,1.8*3C
$GPGSV,3,1,12,28,75,028,45,31,71,275,46,32,45,114,48,03,39,300,48*73
$GPGSV,3,2,12,26,36,191,43,04,08,299,42,01,07,260,36,10,03,167,19*71
$GPGSV,3,3,12,12,02,034,29,48,19,238,42,14,55,103,,25,42,181,*72
$GPRMC,155628.000,A,4516.4149,N,07552.3012,W,0.00,61.59,201223,,,D*44
$GPGGA,155629.000,4516.4149,N,07552.3012,W,2,06,1.6,99.9,M,-34.3,M,2.0,0000*77
$GPGSA,M,3,28,31,32,03,26,04,,,,,,,2.4,1.6,1.8*3C
$GPRMC,155629.000,A,4516.4149,N,07552.3012,W,0.00,61.59,201223,,,D*45
$GPGGA,155630.000,4516.4149,N,07552.3012,W,2,06,1.6,99.9,M,-34.3,M,3.0,0000*7E
$GPGSA,M,3,28,31,32,03,26,04,,,,,,,2.4,1.6,1.8*3C
$GPRMC,155630.000,A,4516.4149,N,07552.3012,W,0.00,61.59,201223,,,D*4D
$GPGGA,155631.000,4516.4149,N,07552.3012,W,2,06,1.6,99.9,M,-34.3,M,4.0,0000*78
$GPGSA,M,3,28,31,32,03,26,04,,,,,,,2.4,1.6,1.8*3C
$GPRMC,155631.000,A,4516.4149,N,07552.3012,W,0.00,61.59,201223,,,D*4C
$GPGGA,155632.000,4516.4149,N,07552.3012,W,2,06,1.6,99.9,M,-34.3,M,5.0,0000*7A
$GPGSA,M,3,28,31,32,03,26,04,,,,,,,2.4,1.6,1.8*3C
$GPRMC,155632.000,A,4516.4149,N,07552.3012,W,0.00,61.59,201223,,,D*4F
$GPGGA,155633.000,4516.4149,N,07552.3012,W,2,06,1.6,99.9,M,-34.3,M,2.0,0000*7C
$GPGSA,M,3,28,31,32,03,26,04,,,,,,,2.4,1.6,1.8*3C
$GPGSV,3,1,12,28,75,028,44,31,71,275,46,32,45,114,48,03,39,300,48*72
$GPGSV,3,2,12,26,36,191,43,04,08,299,42,01,07,260,37,10,03,167,20*7A
$GPGSV,3,3,12,12,02,034,27,48,19,238,42,14,55,103,,25,42,181,*7C
$GPRMC,155633.000,A,4516.4149,N,07552.3012,W,0.00,61.59,201223,,,D*4E
$GPGGA,155634.000,4516.4149,N,07552.3012,W,2,06,1.6,99.9,M,-34.3,M,2.0,0000*7B
$GPGSA,M,3,28,31,32,03,26,04,,,,,,,2.4,1.6,1.8*3C
$GPRMC,155634.000,A,4516.4149,N,07552.3012,W,0.00,61.59,201223,,,D*49
$GPGGA,155635.000,4516.4149,N,07552.3012,W,2,06,1.6,99.9,M,-34.3,M,2.0,0000*7A
$GPGSA,M,3,28,31,32,03,26,04,,,,,,,2.4,1.6,1.8*3C
$GPRMC,155635.000,A,4516.4149,N,07552.3012,W,0.00,61.59,201223,,,D*48
$GPGGA,155636.000,4516.4149,N,07552.3012,W,2,06,1.6,99.9,M,-34.3,M,3.0,0000*78
$GPGSA,M,3,28,31,32,03,26,04,,,,,,,2.4,1.6,1.8*3C
$GPRMC,155636.000,A,4516.4149,N,07552.3012,W,0.00,61.59,201223,,,D*4B
$GPGGA,155637.000,4516.4149,N,07552.3012,W,2,06,1.6,99.9,M,-34.3,M,4.0,0000*7E
$GPGSA,M,3,28,31,32,03,26,04,,,,,,,2.4,1.6,1.8*3C
$GPRMC,155637.000,A,4516.4149,N,07552.3012,W,0.00,61.59,201223,,,D*4A
$GPGGA,155638.000,4516.4149,N,07552.3012,W,2,06,1.6,99.9,M,-34.3,M,2.0,0000*77
$GPGSA,M,3,28,31,32,03,26,04,,,,,,,2.4,1.6,1.8*3C
$GPGSV,3,1,12,28,75,028,44,31,71,275,46,32,45,114,48,03,39,300,48*72
$GPGSV,3,2,12,26,36,191,42,04,08,299,42,01,07,260,38,10,03,167,20*74
$GPGSV,3,3,12,12,02,034,27,48,19,238,42,14,55,103,,25,42,181,*7C
$GPRMC,155638.000,A,4516.4149,N,07552.3012,W,0.00,61.59,201223,,,D*45
$GPGGA,155639.000,4516.4149,N,07552.3012,W,2,06,1.6,99.9,M,-34.3,M,2.0,0000*76
$GPGSA,M,3,28,31,32,03,26,04,,,,,,,2.4,1.6,1.8*3C
$GPRMC,155639.000,A,4516.4149,N,07552.3012,W,0.00,61.59,201223,,,D*44
$GPGGA,155640.000,4516.4149,N,07552.3012,W,2,06,1.6,99.9,M,-34.3,M,2.0,0000*78
$GPGSA,M,3,28,31,32,03,26,04,,,,,,,2.4,1.6,1.8*3C
$GPRMC,155640.000,A,4516.4149,N,07552.3012,W,0.00,61.59,201223,,,D*4A
$GPGGA,155641.000,4516.4149,N,07552.3012,W,2,06,1.6,99.9,M,-34.3,M,2.0,0000*79
$GPGSA,M,3,28,31,32,03,26,04,,,,,,,2.4,1.6,1.8*3C
$GPRMC,155641.000,A,4516.4149,N,07552.3012,W,0.00,61.59,201223,,,D*4B
$GPGGA,155642.000,4516.4149,N,07552.3012,W,2,06,1.6,99.9,M,-34.3,M,3.0,0000*7B
$GPGSA,M,3,28,31,32,03,26,04,,,,,,,2.4,1.6,1.8*3C
$GPRMC,155642.000,A,4516.4149,N,07552.3012,W,0.00,61.59,201223,,,D*48
$GPGGA,155643.000,4516.4149,N,07552.3012,W,2,06,1.6,99.9,M,-34.3,M,4.0,0000*7D
$GPGSA,M,3,28,31,32,03,26,04,,,,,,,2.4,1.6,1.8*3C
$GPGSV,3,1,12,28,75,028,44,31,71,275,46,32,45,114,49,03,39,300,48*73
$GPGSV,3,2,12,26,36,191,42,04,08,299,42,01,07,260,38,10,03,167,20*74
$GPGSV,3,3,12,12,02,034,33,48,19,238,41,14,55,103,,25,42,181,*7A
$GPRMC,155643.000,A,4516.4149,N,07552.3012,W,0.00,61.59,201223,,,D*49
$GPGGA,155644.000,4516.4149,N,07552.3012,W,2,06,1.6,99.9,M,-34.3,M,5.0,0000*7B
$GPGSA,M,3,28,31,32,03,26,04,,,,,,,2.4,1.6,1.8*3C
$GPRMC,155644.000,A,4516.4149,N,07552.3012,W,0.00,61.59,201223,,,D*4E
$GPGGA,155645.000,4516.4149,N,07552.3012,W,2,06,1.6,99.9,M,-34.3,M,2.0,0000*7D
$GPGSA,M,3,28,31,32,03,26,04,,,,,,,2.4,1.6,1.8*3C
$GPRMC,155645.000,A,4516.4149,N,07552.3012,W,0.00,61.59,201223,,,D*4F
$GPGGA,155646.000,4516.4149,N,07552.3012,W,2,06,1.6,99.9,M,-34.3,M,2.0,0000*7E
$GPGSA,M,3,28,31,32,03,26,04,,,,,,,2.4,1.6,1.8*3C
$GPRMC,155646.000,A,4516.4149,N,07552.3012,W,0.00,61.59,201223,,,D*4C
$GPGGA,155647.000,4516.4148,N,07552.3012,W,2,06,1.6,99.9,M,-34.3,M,2.0,0000*7E
$GPGSA,M,3,28,31,32,03,26,04,,,,,,,2.4,1.6,1.8*3C
$GPRMC,155647.000,A,4516.4148,N,07552.3012,W,0.00,61.59,201223,,,D*4C
$GPGGA,155648.000,4516.4148,N,07552.3012,W,2,06,1.6,99.9,M,-34.3,M,2.0,0000*71
$GPGSA,M,3,28,31,32,03,26,04,,,,,,,2.4,1.6,1.8*3C
$GPGSV,3,1,12,28,75,028,44,31,71,275,46,32,45,114,49,03,39,300,48*73
$GPGSV,3,2,12,26,36,191,42,04,08,299,42,01,07,260,38,10,03,167,20*74
$GPGSV,3,3,12,12,02,034,33,48,19,238,42,14,55,103,,25,42,181,*79
$GPRMC,155648.000,A,4516.4148,N,07552.3012,W,0.00,61.59,201223,,,D*43
$GPGGA,155649.000,4516.4148,N,07552.3012,W,2,06,1.6,99.9,M,-34.3,M,3.0,0000*71
$GPGSA,M,3,28,31,32,03,26,04,,,,,,,2.4,1.6,1.8*3C
$GPRMC,155649.000,A,4516.4148,N,07552.3012,W,0.00,61.59,201223,,,D*42
$GPGGA,155650.000,4516.4148,N,07552.3012,W,2,06,1.6,99.9,M,-34.3,M,4.0,0000*7E
$GPGSA,M,3,28,31,32,03,26,04,,,,,,,2.4,1.6,1.8*3C
$GPRMC,155650.000,A,4516.4148,N,07552.3012,W,0.00,61.59,201223,,,D*4A
$GPGGA,155651.000,4516.4148,N,07552.3012,W,2,06,1.6,99.9,M,-34.3,M,2.0,0000*79
$GPGSA,M,3,28,31,32,03,26,04,,,,,,,2.4,1.6,1.8*3C
$GPRMC,155651.000,A,4516.4148,N,07552.3012,W,0.00,61.59,201223,,,D*4B
$GPGGA,155652.000,4516.4148,N,07552.3012,W,2,06,1.6,99.9,M,-34.3,M,2.0,0000*7A
$GPGSA,M,3,28,31,32,03,26,04,,,,,,,2.4,1.6,1.8*3C
$GPRMC,155652.000,A,4516.4148,N,07552.3012,W,0.00,61.59,201223,,,D*48
$GPGGA,155653.000,4516.4148,N,07552.3012,W,2,06,1.6,99.9,M,-34.3,M,2.0,0000*7B
$GPGSA,M,3,28,31,32,03,26,04,,,,,,,2.4,1.6,1.8*3C
$GPGSV,3,1,12,28,75,028,44,31,71,275,45,32,45,114,49,03,39,300,48*70
$GPGSV,3,2,12,26,36,191,42,04,08,299,42,01,07,260,39,10,03,167,20*75
$GPGSV,3,3,12,12,02,034,33,48,19,238,42,14,55,103,,25,42,181,*79
$GPRMC,155653.000,A,4516.4148,N,07552.3012,W,0.00,61.59,201223,,,D*49
$GPGGA,155654.000,4516.4148,N,07552.3012,W,2,06,1.6,99.9,M,-34.3,M,2.0,0000*7C
$GPGSA,M,3,28,31,32,03,26,04,,,,,,,2.4,1.6,1.8*3C
$GPRMC,155654.000,A,4516.4148,N,07552.3012,W,0.00,61.59,201223,,,D*4E
$GPGGA,155655.000,4516.4148,N,07552.3012,W,2,06,1.6,99.9,M,-34.3,M,3.0,0000*7C
$GPGSA,M,3,28,31,32,03,26,04,,,,,,,2.4,1.6,1.8*3C
$GPRMC,155655.000,A,4516.4148,N,07552.3012,W,0.00,61.59,201223,,,D*4F
$GPGGA,155656.000,4516.4148,N,07552.3012,W,2,06,1.6,99.9,M,-34.3,M,4.0,0000*78
$GPGSA,M,3,28,31,32,03,26,04,,,,,,,2.4,1.6,1.8*3C
$GPRMC,155656.000,A,4516.4148,N,07552.3012,W,0.00,61.59,201223,,,D*4C
$GPGGA,155657.000,4516.4148,N,07552.3012,W,2,06,1.6,99.9,M,-34.3,M,2.0,0000*7F
$GPGSA,M,3,28,31,32,03,26,04,,,,,,,2.4,1.6,1.8*3C
$GPRMC,155657.000,A,4516.4148,N,07552.3012,W,0.00,61.59,201223,,,D*4D
$GPGGA,155658.000,4516.4148,N,07552.3012,W,2,06,1.6,99.9,M,-34.3,M,2.0,0000*70
$GPGSA,M,3,28,31,32,03,26,04,,,,,,,2.4,1.6,1.8*3C
$GPGSV,3,1,12,28,75,028,44,31,71,275,44,32,45,114,49,03,39,300,48*71
$GPGSV,3,2,12,26,36,191,42,04,08,299,42,01,07,260,39,10,03,167,21*74
$GPGSV,3,3,12,12,02,034,33,48,19,238,42,14,55,103,,25,42,181,*79
$GPRMC,155658.000,A,4516.4148,N,07552.3012,W,0.00,61.59,201223,,,D*42
$GPGGA,155659.000,4516.4148,N,07552.3012,W,2,06,1.6,99.9,M,-34.3,M,2.0,0000*71
$GPGSA,M,3,28,31,32,03,26,04,,,,,,,2.4,1.6,1.8*3C
$GPRMC,155659.000,A,4516.4148,N,07552.3012,W,0.00,61.59,201223,,,D*43
$GPGGA,155700.000,4516.4148,N,07552.3012,W,2,06,1.6,99.9,M,-34.3,M,3.0,0000*7D
$GPGSA,M,3,28,31,32,03,26,04,,,,,,,2.4,1.6,1.8*3C
$GPRMC,155700.000,A,4516.4148,N,07552.3012,W,0.00,61.59,201223,,,D*4E
$GPGGA,155701.000,4516.4148,N,07552.3012,W,2,06,1.6,99.9,M,-34.3,M,4.0,0000*7B
$GPGSA,M,3,28,31,32,03,26,04,,,,,,,2.4,1.6,1.8*3C
$GPRMC,155701.000,A,4516.4148,N,07552.3012,W,0.00,61.59,201223,,,D*4F
$GPGGA,155702.000,4516.4148,N,07552.3012,W,2,06,1.6,99.9,M,-34.3,M,5.0,0000*79
$GPGSA,M,3,28,31,32,03,26,04,,,,,,,2.4,1.6,1.8*3C
$GPRMC,155702.000,A,4516.4148,N,07552.3012,W,0.00,61.59,201223,,,D*4C
$GPGGA,155703.000,4516.4148,N,07552.3012,W,2,06,1.6,99.9,M,-34.3,M,2.0,0000*7F
$GPGSA,M,3,28,31,32,03,26,04,,,,,,,2.4,1.6,1.8*3C
$GPGSV,3,1,12,28,75,028,44,31,71,275,44,32,45,114,49,03,39,300,48*71
$GPGSV,3,2,12,26,36,191,42,04,08,299,42,01,07,260,39,10,03,167,23*76
$GPGSV,3,3,12,12,02,034,33,48,19,238,42,14,55,103,,25,42,181,*79
$GPRMC,155703.000,A,4516.4148,N,07552.3012,W,0.00,61.59,201223,,,D*4D
$GPGGA,155704.000,4516.4148,N,07552.3012,W,2,06,1.6,99.9,M,-34.3,M,2.0,0000*78
$GPGSA,M,3,28,31,32,03,26,04,,,,,,,2.4,1.6,1.8*3C
$GPRMC,155704.000,A,4516.4148,N,07552.3012,W,0.00,61.59,201223,,,D*4A
$GPGGA,155705.000,4516.4148,N,07552.3012,W,2,06,1.6,99.9,M,-34.3,M,2.0,0000*79
$GPGSA,M,3,28,31,32,03,26,04,,,,,,,2.4,1.6,1.8*3C
$GPRMC,155705.000,A,4516.4148,N,07552.3012,W,0.00,61.59,201223,,,D*4B
$GPGGA,155706.000,4516.4148,N,07552.3012,W,2,06,1.6,99.9,M,-34.3,M,3.0,0000*7B
$GPGSA,M,3,28,31,32,03,26,04,,,,,,,2.4,1.6,1.8*3C
$GPRMC,155706.000,A,4516.4148,N,07552.3012,W,0.00,61.59,201223,,,D*48
$GPGGA,155707.000,4516.4148,N,07552.3012,W,2,06,1.6,99.9,M,-34.3,M,4.0,0000*7D
$GPGSA,M,3,28,31,32,03,26,04,,,,,,,2.4,1.6,1.8*3C
$GPRMC,155707.000,A,4516.4148,N,07552.3012,W,0.00,61.59,201223,,,D*49
$GPGGA,155708.000,4516.4148,N,07552.3012,W,2,06,1.6,99.9,M,-34.3,M,5.0,0000*73
$GPGSA,M,3,28,31,32,03,26,04,,,,,,,2.4,1.6,1.8*3C
$GPGSV,3,1,12,28,75,028,45,31,71,275,44,32,45,114,49,03,39,300,48*70
$GPGSV,3,2,12,26,36,191,42,04,08,299,41,01,07,260,39,10,03,167,23*75
$GPGSV,3,3,12,12,02,034,33,48,19,238,42,14,55,103,,25,42,181,*79
$GPRMC,155708.000,A,4516.4148,N,07552.3012,W,0.00,61.59,201223,,,D*46
$GPGGA,155709.000,4516.4148,N,07552.3012,W,2,06,1.6,99.9,M,-34.3,M,2.0,0000*75
$GPGSA,M,3,28,31,32,03,26,04,,,,,,,2.4,1.6,1.8*3C
$GPRMC,155709.000,A,4516.4148,N,07552.3012,W,0.00,61.59,201223,,,D*47
$GPGGA,155710.000,4516.4148,N,07552.3012,W,2,06,1.6,99.9,M,-34.3,M,2.0,0000*7D
$GPGSA,M,3,28,31,32,03,26,04,,,,,,,2.4,1.6,1.8*3C
$GPRMC,155710.000,A,4516.4148,N,07552.3012,W,0.00,61.59,201223,,,D*4F
$GPGGA,155711.000,4516.4148,N,07552.3012,W,2,06,1.6,99.9,M,-34.3,M,2.0,0000*7C
$GPGSA,M,3,28,31,32,03,26,04,,,,,,,2.4,1.6,1.8*3C
$GPRMC,155711.000,A,4516.4148,N,07552.3012,W,0.00,61.59,201223,,,D*4E
$GPGGA,155712.000,4516.4148,N,07552.3012,W,2,06,1.6,99.9,M,-34.3,M,2.0,0000*7F
$GPGSA,M,3,28,31,32,03,26,04,,,,,,,2.4,1.6,1.8*3C
$GPRMC,155712.000,A,4516.4148,N,07552.3012,W,0.00,61.59,201223,,,D*4D
$GPGGA,155713.000,4516.4148,N,07552.3012,W,2,06,1.6,99.9,M,-34.3,M,3.0,0000*7F
$GPGSA,M,3,28,31,32,03,26,04,,,,,,,2.4,1.6,1.8*3C
$GPGSV,3,1,12,28,75,028,45,31,71,275,44,32,45,114,49,03,39,300,48*70
$GPGSV,3,2,12,26,36,191,42,04,08,299,41,01,07,260,39,10,03,167,24*72
$GPGSV,3,3,12,12,02,034,34,48,19,238,42,14,55,103,,25,42,181,*7E
$GPRMC,155713.000,A,4516.4148,N,07552.3012,W,0.00,61.59,201223,,,D*4C
$GPGGA,155714.000,4516.4148,N,07552.3012,W,2,06,1.6,99.9,M,-34.3,M,2.0,0000*79
$GPGSA,M,3,28,31,32,03,26,04,,,,,,,2.4,1.6,1.8*3C
$GPRMC,155714.000,A,4516.4148,N,07552.3012,W,0.00,61.59,201223,,,D*4B
$GPGGA,155715.000,4516.4148,N,07552.3012,W,2,06,1.6,99.9,M,-34.3,M,2.0,0000*78
$GPGSA,M,3,28,31,32,03,26,04,,,,,,,2.4,1.6,1.8*3C
$GPRMC,155715.000,A,4516.4148,N,07552.3012,W,0.00,61.59,201223,,,D*4A
$GPGGA,155716.000,4516.4148,N,07552.3012,W,2,06,1.6,99.9,M,-34.3,M,2.0,0000*7B
$GPGSA,M,3,28,31,32,03,26,04,,,,,,,2.4,1.6,1.8*3C
$GPRMC,155716.000,A,4516.4148,N,07552.3012,W,0.00,61.59,201223,,,D*49
$GPGGA,155717.000,4516.4148,N,07552.3012,W,2,06,1.6,99.9,M,-34.3,M,2.0,0000*7A
$GPGSA,M,3,28,31,32,03,26,04,,,,,,,2.4,1.6,1.8*3C
$GPRMC,155717.000,A,4516.4148,N,07552.3012,W,0.00,61.59,201223,,,D*48
$GPGGA,155718.000,4516.4148,N,07552.3012,W,2,06,1.6,99.9,M,-34.3,M,3.0,0000*74
$GPGSA,M,3,28,31,32,03,26,04,,,,,,,2.4,1.6,1.8*3C
$GPGSV,3,1,12,28,75,028,45,31,71,275,45,32,45,114,49,03,39,300,48*71
$GPGSV,3,2,12,26,36,191,42,04,08,299,40,01,07,260,39,10,03,167,24*73
$GPGSV,3,3,12,12,02,034,34,48,19,238,42,14,55,103,,25,42,181,*7E
$GPRMC,155718.000,A,4516.4148,N,07552.3012,W,0.00,61.59,201223,,,D*47
$GPGGA,155719.000,4516.4148,N,07552.3012,W,2,06,1.6,99.9,M,-34.3,M,2.0,0000*74
$GPGSA,M,3,28,31,32,03,26,04,,,,,,,2.4,1.6,1.8*3C
$GPRMC,155719.000,A,4516.4148,N,07552.3012,W,0.00,61.59,201223,,,D*46
$GPGGA,155720.000,4516.4148,N,07552.3012,W,2,06,1.6,99.9,M,-34.3,M,2.0,0000*7E
$GPGSA,M,3,28,31,32,03,26,04,,,,,,,2.4,1.6,1.8*3C
$GPRMC,155720.000,A,4516.4148,N,07552.3012,W,0.00,61.59,201223,,,D*4C
$GPGGA,155721.000,4516.4148,N,07552.3012,W,2,06,1.6,99.9,M,-34.3,M,2.0,0000*7F
$GPGSA,M,3,28,31,32,03,26,04,,,,,,,2.4,1.6,1.8*3C
$GPRMC,155721.000,A,4516.4148,N,07552.3012,W,0.00,61.59,201223,,,D*4D
$GPGGA,155722.000,4516.4148,N,07552.3012,W,2,06,1.6,99.9,M,-34.3,M,2.0,0000*7C
$GPGSA,M,3,28,31,32,03,26,04,,,,,,,2.4,1.6,1.8*3C
$GPRMC,155722.000,A,4516.4148,N,07552.3012,W,0.00,61.59,201223,,,D*4E
$GPGGA,155723.000,4516.4148,N,07552.3012,W,2,06,1.6,99.9,M,-34.3,M,2.0,0000*7D
$GPGSA,M,3,28,31,32,03,26,04,,,,,,,2.4,1.6,1.8*3C
$GPGSV,3,1,12,28,75,028,45,31,71,275,45,32,45,114,49,03,39,300,48*71
$GPGSV,3,2,12,26,36,191,42,04,08,299,41,01,07,260,40,10,03,167,24*7C
$GPGSV,3,3,12,12,02,034,34,48,19,238,42,14,55,103,,25,42,181,*7E
$GPRMC,155723.000,A,4516.4148,N,07552.3012,W,0.00,61.59,201223,,,D*4F
$GPGGA,155724.000,4516.4148,N,07552.3012,W,2,06,1.6,99.9,M,-34.3,M,3.0,0000*7B
$GPGSA,M,3,28,31,32,03,26,04,,,,,,,2.4,1.6,1.8*3C
$GPRMC,155724.000,A,4516.4148,N,07552.3012,W,0.00,61.59,201223,,,D*48
$GPGGA,155725.000,4516.4148,N,07552.3012,W,2,06,1.6,99.9,M,-34.3,M,4.0,0000*7D
$GPGSA,M,3,28,31,32,03,26,04,,,,,,,2.4,1.6,1.8*3C
$GPRMC,155725.000,A,4516.4148,N,07552.3012,W,0.00,61.59,201223,,,D*49
$GPGGA,155726.000,4516.4148,N,07552.3012,W,2,06,1.6,99.9,M,-34.3,M,5.0,0000*7F
$GPGSA,M,3,28,31,32,03,26,04,,,,,,,2.4,1.6,1.8*3C
$GPRMC,155726.000,A,4516.4148,N,07552.3012,W,0.00,61.59,201223,,,D*4A
$GPGGA,155727.000,4516.4148,N,07552.3012,W,2,06,1.6,99.9,M,-34.3,M,2.0,0000*79
$GPGSA,M,3,28,31,32,03,26,04,,,,,,,2.4,1.6,1.8*3C
$GPRMC,155727.000,A,4516.4148,N,07552.3012,W,0.00,61.59,201223,,,D*4B
$GPGGA,155728.000,4516.4148,N,07552.3012,W,2,06,1.6,99.9,M,-34.3,M,2.0,0000*76
$GPGSA,M,3,28,31,32,03,26,04,,,,,,,2.4,1.6,1.8*3C
$GPGSV,3,1,12,28,75,028,45,31,71,275,45,32,45,114,48,03,39,300,49*71
$GPGSV,3,2,12,26,36,191,43,04,08,299,41,01,07,260,40,10,03,167,21*78
$GPGSV,3,3,12,12,02,034,35,48,19,238,42,14,55,103,,25,42,181,*7F
$GPRMC,155728.000,A,4516.4148,N,07552.3012,W,0.00,61.59,201223,,,D*44
$GPGGA,155729.000,4516.4148,N,07552.3012,W,2,06,1.6,100.0,M,-34.3,M,2.0,0000*4F
$GPGSA,M,3,28,31,32,03,26,04,,,,,,,2.4,1.6,1.8*3C
$GPRMC,155729.000,A,4516.4148,N,07552.3012,W,0.00,61.59,201223,,,D*45
$GPGGA,155730.000,4516.4148,N,07552.3012,W,2,06,1.6,100.0,M,-34.3,M,3.0,0000*46
$GPGSA,M,3,28,31,32,03,26,04,,,,,,,2.5,1.6,1.8*3D
$GPRMC,155730.000,A,4516.4148,N,07552.3012,W,0.00,61.59,201223,,,D*4D
$GPGGA,155731.000,4516.4148,N,07552.3012,W,2,06,1.6,100.0,M,-34.3,M,4.0,0000*40
$GPGSA,M,3,28,31,32,03,26,04,,,,,,,2.5,1.6,1.8*3D
$GPRMC,155731.000,A,4516.4148,N,07552.3012,W,0.00,61.59,201223,,,D*4C
$GPGGA,155732.000,4516.4148,N,07552.3012,W,2,06,1.6,100.0,M,-34.3,M,5.0,0000*42
$GPGSA,M,3,28,31,32,03,26,04,,,,,,,2.5,1.6,1.8*3D
$GPRMC,155732.000,A,4516.4148,N,07552.3012,W,0.00,61.59,201223,,,D*4F
$GPGGA,155733.000,4516.4148,N,07552.3012,W,2,06,1.6,100.0,M,-34.3,M,2.0,0000*44
$GPGSA,M,3,28,31,32,03,26,04,,,,,,,2.5,1.6,1.8*3D
$GPGSV,3,1,12,28,75,028,45,31,71,275,45,32,45,114,48,03,39,300,49*71
$GPGSV,3,2,12,26,36,191,43,04,08,299,40,01,07,260,40,10,03,167,23*7B
$GPGSV,3,3,12,12,02,034,35,48,19,238,42,14,55,103,,25,42,181,*7F
$GPRMC,155733.000,A,4516.4148,N,07552.3012,W,0.00,61.59,201223,,,D*4E
$GPGGA,155734.000,4516.4148,N,07552.3012,W,2,06,1.6,100.0,M,-34.3,M,2.0,0000*43
$GPGSA,M,3,28,31,32,03,26,04,,,,,,,2.5,1.6,1.8*3D
$GPRMC,155734.000,A,4516.4148,N,07552.3012,W,0.00,61.59,201223,,,D*49
$GPGGA,155735.000,4516.4148,N,07552.3012,W,2,06,1.6,100.0,M,-34.3,M,2.0,0000*42
$GPGSA,M,3,28,31,32,03,26,04,,,,,,,2.5,1.6,1.8*3D
$GPRMC,155735.000,A,4516.4148,N,07552.3012,W,0.00,61.59,201223,,,D*48
$GPGGA,155736.000,4516.4148,N,07552.3012,W,2,06,1.6,100.0,M,-34.3,M,3.0,0000*40
$GPGSA,M,3,28,31,32,03,26,04,,,,,,,2.5,1.6,1.8*3D
$GPRMC,155736.000,A,4516.4148,N,07552.3012,W,0.00,61.59,201223,,,D*4B
$GPGGA,155737.000,4516.4148,N,07552.3012,W,2,06,1.6,100.0,M,-34.3,M,2.0,0000*40
$GPGSA,M,3,28,31,32,03,26,04,,,,,,,2.5,1.6,1.8*3D
$GPRMC,155737.000,A,4516.4148,N,07552.3012,W,0.00,61.59,201223,,,D*4A
$GPGGA,155738.000,4516.4148,N,07552.3012,W,2,06,1.6,100.0,M,-34.3,M,3.0,0000*4E
$GPGSA,M,3,28,31,32,03,26,04,,,,,,,2.5,1.6,1.8*3D
$GPGSV,3,1,12,28,75,028,45,31,71,275,45,32,45,114,48,03,39,300,49*71
$GPGSV,3,2,12,26,36,191,43,04,08,299,40,01,07,260,40,10,03,167,23*7B
$GPGSV,3,3,12,12,02,034,35,48,19,238,42,14,55,103,,25,42,181,*7F
$GPRMC,155738.000,A,4516.4148,N,07552.3012,W,0.00,61.59,201223,,,D*45
$GPGGA,155739.000,4516.4148,N,07552.3012,W,2,06,1.6,100.0,M,-34.3,M,2.0,0000*4E
$GPGSA,M,3,28,31,32,03,26,04,,,,,,,2.5,1.6,1.8*3D
$GPRMC,155739.000,A,4516.4148,N,07552.3012,W,0.00,61.59,201223,,,D*44
$GPGGA,155740.000,4516.4148,N,07552.3012,W,2,06,1.6,100.0,M,-34.3,M,2.0,0000*40
$GPGSA,M,3,28,31,32,03,26,04,,,,,,,2.5,1.6,1.8*3D
$GPRMC,155740.000,A,4516.4148,N,07552.3012,W,0.00,61.59,201223,,,D*4A
$GPGGA,155741.000,4516.4148,N,07552.3012,W,2,06,1.6,100.0,M,-34.3,M,2.0,0000*41
$GPGSA,M,3,28,31,32,03,26,04,,,,,,,2.5,1.6,1.8*3D
$GPRMC,155741.000,A,4516.4148,N,07552.3012,W,0.00,61.59,201223,,,D*4B
$GPGGA,155742.000,4516.4148,N,07552.3012,W,2,06,1.6,100.0,M,-34.3,M,2.0,0000*42
$GPGSA,M,3,28,31,32,03,26,04,,,,,,,2.5,1.6,1.8*3D
$GPRMC,155742.000,A,4516.4148,N,07552.3012,W,0.00,61.59,201223,,,D*48
$GPGGA,155743.000,4516.4148,N,07552.3012,W,2,06,1.6,100.0,M,-34.3,M,3.0,0000*42
$GPGSA,M,3,28,31,32,03,26,04,,,,,,,2.5,1.6,1.8*3D
$GPGSV,3,1,12,28,75,028,45,31,71,275,45,32,45,114,49,03,39,300,49*70
$GPGSV,3,2,12,26,36,191,43,04,08,299,39,01,07,260,40,10,03,167,22*74
$GPGSV,3,3,12,12,02,034,36,48,19,238,42,14,55,103,,25,42,181,*7C
$GPRMC,155743.000,A,4516.4148,N,07552.3012,W,0.00,61.59,201223,,,D*49
$GPGGA,155744.000,4516.4148,N,07552.3012,W,2,06,1.6,100.0,M,-34.3,M,4.0,0000*42
$GPGSA,M,3,28,31,32,03,26,04,,,,,,,2.5,1.6,1.8*3D
$GPRMC,155744.000,A,4516.4148,N,07552.3012,W,0.00,61.59,201223,,,D*4E
$GPGGA,155745.000,4516.4148,N,07552.3012,W,2,06,1.6,100.0,M,-34.3,M,2.0,0000*45
$GPGSA,M,3,28,31,32,03,26,04,,,,,,,2.5,1.6,1.8*3D
$GPRMC,155745.000,A,4516.4148,N,07552.3012,W,0.00,61.59,201223,,,D*4F
$GPGGA,155746.000,4516.4148,N,07552.3012,W,2,06,1.6,100.0,M,-34.3,M,2.0,0000*46
$GPGSA,M,3,28,31,32,03,26,04,,,,,,,2.5,1.6,1.8*3D
$GPRMC,155746.000,A,4516.4148,N,07552.3012,W,0.00,61.59,201223,,,D*4C
$GPGGA,155747.000,4516.4148,N,07552.3012,W,2,06,1.6,100.0,M,-34.3,M,2.0,0000*47
$GPGSA,M,3,28,31,32,03,26,04,,,,,,,2.5,1.6,1.8*3D
$GPRMC,155747.000,A,4516.4148,N,07552.3012,W,0.00,61.59,201223,,,D*4D
$GPGGA,155748.000,4516.4148,N,07552.3012,W,2,06,1.6,100.0,M,-34.3,M,3.0,0000*49
$GPGSA,M,3,28,31,32,03,26,04,,,,,,,2.5,1.6,1.8*3D
$GPGSV,3,1,12,28,75,028,45,31,71,275,46,32,45,114,48,03,39,300,48*73
$GPGSV,3,2,12,26,36,191,43,04,08,299,39,01,07,260,41,10,03,167,23*74
$GPGSV,3,3,12,12,02,034,36,48,19,238,42,14,55,103,,25,42,181,*7C
$GPRMC,155748.000,A,4516.4148,N,07552.3012,W,0.00,61.59,201223,,,D*42
$GPGGA,155749.000,4516.4148,N,07552.3012,W,2,06,1.6,100.0,M,-34.3,M,2.0,0000*49
$GPGSA,M,3,28,31,32,03,26,04,,,,,,,2.5,1.6,1.8*3D
$GPRMC,155749.000,A,4516.4148,N,07552.3012,W,0.00,61.59,201223,,,D*43
$GPGGA,155750.000,4516.4148,N,07552.3012,W,2,06,1.6,100.0,M,-34.3,M,3.0,0000*40
$GPGSA,M,3,28,31,32,03,26,04,,,,,,,2.5,1.6,1.8*3D
$GPRMC,155750.000,A,4516.4148,N,07552.3012,W,0.00,61.59,201223,,,D*4B
$GPGGA,155751.000,4516.4148,N,07552.3012,W,2,06,1.6,100.0,M,-34.3,M,2.0,0000*40
