$GNVTG,,T,,M,0.206,N,0.381,K,A*33
$GNGGA,201346.00,4516.57988,N,07553.05750,W,1,10,0.97,103.1,M,-34.3,M,,*79
$GNGSA,A,3,11,20,06,12,25,09,19,29,04,,,,1.68,0.97,1.37*16
$GNGSA,A,3,82,,,,,,,,,,,,1.68,0.97,1.37*12
$GPGSV,3,1,11,04,10,034,23,05,30,219,20,06,47,069,29,09,27,062,11*7F
$GPGSV,3,2,11,11,76,016,32,12,39,243,26,17,00,133,,19,23,132,16*7E
$GPGSV,3,3,11,20,70,219,30,25,31,287,26,29,12,310,17*45
$GLGSV,3,1,10,66,05,020,,67,47,057,21,68,48,139,,69,10,177,*64
$GLGSV,3,2,10,73,17,249,,74,25,297,,75,08,345,,82,35,084,28*62
$GLGSV,3,3,10,83,64,025,,84,23,299,*65
$GNGLL,4516.57988,N,07553.05750,W,201346.00,A,A*69
$GNRMC,201347.00,A,4516.57977,N,07553.05747,W,0.112,,180425,,,A*7F
$GNVTG,,T,,M,0.112,N,0.207,K,A*3A
$GNGGA,201347.00,4516.57977,N,07553.05747,W,1,09,1.00,102.9,M,-34.3,M,,*70
$GNGSA,A,3,11,20,06,12,25,19,29,04,,,,,1.69,1.00,1.37*11
$GNGSA,A,3,82,,,,,,,,,,,,1.69,1.00,1.37*1C
$GPGSV,3,1,11,04,10,034,23,05,30,219,20,06,47,069,29,09,27,062,09*76
$GPGSV,3,2,11,11,76,016,32,12,39,243,26,17,00,133,,19,23,132,16*7E
$GPGSV,3,3,11,20,70,219,30,25,31,287,26,29,12,310,16*44
$GLGSV,3,1,10,66,05,020,,67,47,057,21,68,48,139,,69,10,177,*64
$GLGSV,3,2,10,73,17,249,,74,25,296,,75,08,345,,82,35,084,28*63
$GLGSV,3,3,10,83,64,025,,84,23,299,*65
$GNGLL,4516.57977,N,07553.05747,W,201347.00,A,A*6E
$GNRMC,201348.00,A,4516.57971,N,07553.05743,W,0.065,,180425,,,A*73
$GNVTG,,T,,M,0.065,N,0.121,K,A*3C
$GNGGA,201348.00,4516.57971,N,07553.05743,W,1,09,1.00,102.8,M,-34.3,M,,*7C
$GNGSA,A,3,11,20,06,12,25,19,29,04,,,,,1.69,1.00,1.37*11
$GNGSA,A,3,82,,,,,,,,,,,,1.69,1.00,1.37*1C
$GPGSV,3,1,11,04,10,034,23,05,30,219,19,06,47,069,29,09,27,062,09*7C
$GPGSV,3,2,11,11,76,016,32,12,39,243,26,17,00,133,,19,23,132,15*7D
$GPGSV,3,3,11,20,70,219,30,25,31,287,26,29,12,310,17*45
$GLGSV,3,1,10,66,05,020,,67,47,057,21,68,48,139,,69,10,177,*64
$GLGSV,3,2,10,73,17,249,,74,25,296,,75,08,345,,82,35,084,28*63
$GLGSV,3,3,10,83,64,025,,84,23,299,*65
$GNGLL,4516.57971,N,07553.05743,W,201348.00,A,A*63
$GNRMC,201349.00,A,4516.57965,N,07553.05740,W,0.102,,180425,,,A*74
$GNVTG,,T,,M,0.102,N,0.189,K,A*3E
$GNGGA,201349.00,4516.57965,N,07553.05740,W,1,09,1.00,102.4,M,-34.3,M,,*77
$GNGSA,A,3,11,20,06,12,25,19,29,04,,,,,1.69,1.00,1.37*11
$GNGSA,A,3,82,,,,,,,,,,,,1.69,1.00,1.37*1C
$GPGSV,3,1,11,04,10,034,23,05,30,219,20,06,47,069,29,09,27,062,08*77
$GPGSV,3,2,11,11,76,016,32,12,39,243,26,17,00,133,,19,23,132,16*7E
$GPGSV,3,3,11,20,70,219,30,25,31,287,25,29,12,310,15*44
$GLGSV,3,1,10,66,05,020,,67,47,057,21,68,48,139,,69,10,177,*64
$GLGSV,3,2,10,73,17,249,,74,25,296,,75,08,345,,82,35,084,27*6C
$GLGSV,3,3,10,83,64,025,,84,23,299,*65
$GNGLL,4516.57965,N,07553.05740,W,201349.00,A,A*64
$GNRMC,201350.00,A,4516.57957,N,07553.05732,W,0.085,,180425,,,A*76
$GNVTG,,T,,M,0.085,N,0.157,K,A*33
$GNGGA,201350.00,4516.57957,N,07553.05732,W,1,09,1.00,102.3,M,-34.3,M,,*7C
$GNGSA,A,3,11,20,06,12,25,19,29,04,,,,,1.69,1.00,1.37*11
$GNGSA,A,3,82,,,,,,,,,,,,1.69,1.00,1.37*1C
$GPGSV,3,1,11,04,10,034,23,05,30,219,19,06,47,069,29,09,27,062,09*7C
$GPGSV,3,2,11,11,76,016,32,12,39,243,27,17,00,133,,19,23,132,17*7E
$GPGSV,3,3,11,20,70,219,30,25,31,287,25,29,12,310,15*44
$GLGSV,3,1,10,66,05,020,,67,47,057,21,68,48,139,,69,10,177,*64
$GLGSV,3,2,10,73,17,249,,74,25,296,,75,08,345,,82,35,084,27*6C
$GLGSV,3,3,10,83,64,025,,84,23,299,*65
$GNGLL,4516.57957,N,07553.05732,W,201350.00,A,A*68
$GNRMC,201351.00,A,4516.57945,N,07553.05722,W,0.104,,180425,,,A*7D
$GNVTG,,T,,M,0.104,N,0.192,K,A*32
$GNGGA,201351.00,4516.57945,N,07553.05722,W,1,09,1.00,102.1,M,-34.3,M,,*7D
$GNGSA,A,3,11,20,06,12,25,19,29,04,,,,,1.69,1.00,1.37*11
$GNGSA,A,3,82,,,,,,,,,,,,1.69,1.00,1.37*1C
$GPGSV,3,1,11,04,10,034,23,05,30,219,19,06,47,069,29,09,27,062,09*7C
$GPGSV,3,2,11,11,76,016,32,12,39,243,27,17,00,133,,19,23,132,16*7F
$GPGSV,3,3,11,20,70,219,30,25,31,287,25,29,12,310,16*47
$GLGSV,3,1,10,66,05,020,,67,47,057,22,68,48,139,,69,10,177,*67
$GLGSV,3,2,10,73,17,249,,74,25,296,,75,08,345,,82,35,084,27*6C
$GLGSV,3,3,10,83,64,025,,84,23,299,*65
$GNGLL,4516.57945,N,07553.05722,W,201351.00,A,A*6B
$GNRMC,201352.00,A,4516.57938,N,07553.05722,W,0.235,,180425,,,A*75
$GNVTG,,T,,M,0.235,N,0.435,K,A*3B
$GNGGA,201352.00,4516.57938,N,07553.05722,W,1,10,0.96,101.7,M,-34.3,M,,*77
$GNGSA,A,3,11,20,06,12,25,09,19,29,04,,,,1.68,0.96,1.37*17
$GNGSA,A,3,82,,,,,,,,,,,,1.68,0.96,1.37*13
$GPGSV,3,1,11,04,10,034,23,05,30,219,18,06,47,069,29,09,27,062,12*77
$GPGSV,3,2,11,11,76,016,32,12,39,243,27,17,00,133,17,19,23,132,16*79
$GPGSV,3,3,11,20,70,219,30,25,31,287,25,29,12,310,16*47
$GLGSV,3,1,10,66,05,020,,67,47,057,22,68,48,139,,69,10,177,*67
$GLGSV,3,2,10,73,17,249,,74,25,296,,75,08,345,,82,35,084,28*63
$GLGSV,3,3,10,83,64,025,,84,23,299,*65
$GNGLL,4516.57938,N,07553.05722,W,201352.00,A,A*62
$GNRMC,201353.00,A,4516.57940,N,07553.05717,W,0.191,,180425,,,A*70
$GNVTG,,T,,M,0.191,N,0.355,K,A*37
$GNGGA,201353.00,4516.57940,N,07553.05717,W,1,10,0.96,101.7,M,-34.3,M,,*7F
$GNGSA,A,3,11,20,06,12,25,09,19,29,04,,,,1.68,0.96,1.37*17
$GNGSA,A,3,82,,,,,,,,,,,,1.68,0.96,1.37*13
$GPGSV,3,1,11,04,10,034,23,05,30,219,18,06,47,069,29,09,27,062,13*76
$GPGSV,3,2,11,11,76,016,32,12,39,243,27,17,00,133,14,19,23,132,15*79
$GPGSV,3,3,11,20,70,219,30,25,31,287,25,29,12,310,17*46
$GLGSV,3,1,10,66,05,020,,67,47,057,21,68,48,139,,69,10,177,*64
$GLGSV,3,2,10,73,17,249,,74,25,296,,75,08,345,,82,35,084,27*6C
$GLGSV,3,3,10,83,64,025,,84,23,299,*65
$GNGLL,4516.57940,N,07553.05717,W,201353.00,A,A*6A
$GNRMC,201354.00,A,4516.57930,N,07553.05707,W,0.172,,180425,,,A*7C
$GNVTG,,T,,M,0.172,N,0.318,K,A*33
$GNGGA,201354.00,4516.57930,N,07553.05707,W,1,10,0.96,101.6,M,-34.3,M,,*7F
$GNGSA,A,3,11,20,06,12,25,09,19,29,04,,,,1.67,0.96,1.37*18
$GNGSA,A,3,82,,,,,,,,,,,,1.67,0.96,1.37*1C
$GPGSV,3,1,11,04,10,034,23,05,30,219,18,06,47,069,29,09,27,062,13*76
$GPGSV,3,2,11,11,76,016,32,12,39,243,27,17,00,133,12,19,23,132,16*7C
$GPGSV,3,3,11,20,70,219,30,25,31,287,25,29,12,310,17*46
$GLGSV,3,1,10,66,05,020,,67,47,057,21,68,48,139,,69,10,177,*64
$GLGSV,3,2,10,73,17,249,,74,25,296,,75,08,345,,82,35,084,27*6C
$GLGSV,3,3,10,83,64,025,,84,23,299,*65
$GNGLL,4516.57930,N,07553.05707,W,201354.00,A,A*6B
$GNRMC,201355.00,A,4516.57918,N,07553.05694,W,0.266,,180425,,,A*7A
$GNVTG,,T,,M,0.266,N,0.493,K,A*31
$GNGGA,201355.00,4516.57918,N,07553.05694,W,1,10,0.96,101.6,M,-34.3,M,,*7F
$GNGSA,A,3,11,20,06,12,25,09,19,29,04,,,,1.67,0.96,1.37*18
$GNGSA,A,3,82,,,,,,,,,,,,1.67,0.96,1.37*1C
$GPGSV,3,1,11,04,10,034,23,05,30,219,18,06,47,069,29,09,27,062,13*76
$GPGSV,3,2,11,11,76,016,32,12,39,243,27,17,00,133,10,19,23,132,16*7E
$GPGSV,3,3,11,20,70,219,30,25,31,287,25,29,12,310,16*47
$GLGSV,3,1,10,66,05,020,,67,47,057,20,68,48,139,,69,10,177,*65
$GLGSV,3,2,10,73,17,249,,74,25,296,,75,08,345,,82,35,085,27*6D
$GLGSV,3,3,10,83,64,025,,84,23,299,*65
$GNGLL,4516.57918,N,07553.05694,W,201355.00,A,A*6B
$GNRMC,201356.00,A,4516.57913,N,07553.05690,W,0.192,,180425,,,A*7E
$GNVTG,,T,,M,0.192,N,0.356,K,A*37
$GNGGA,201356.00,4516.57913,N,07553.05690,W,1,10,0.96,101.5,M,-34.3,M,,*70
$GNGSA,A,3,11,20,06,12,25,09,19,29,04,,,,1.67,0.96,1.37*18
$GNGSA,A,3,82,,,,,,,,,,,,1.67,0.96,1.37*1C
$GPGSV,3,1,11,04,10,034,23,05,30,219,16,06,47,069,29,09,27,062,13*78
$GPGSV,3,2,11,11,76,016,32,12,39,243,27,17,00,133,08,19,23,132,16*77
$GPGSV,3,3,11,20,70,219,30,25,31,287,25,29,12,310,16*47
$GLGSV,3,1,10,66,05,020,,67,47,057,21,68,48,139,,69,10,177,*64
$GLGSV,3,2,10,73,17,249,,74,25,296,,75,08,345,,82,35,085,27*6D
$GLGSV,3,3,10,83,64,026,,84,23,299,*66
$GNGLL,4516.57913,N,07553.05690,W,201356.00,A,A*67
$GNRMC,201357.00,A,4516.57903,N,07553.05680,W,0.133,,180425,,,A*74
$GNVTG,,T,,M,0.133,N,0.247,K,A*3D
$GNGGA,201357.00,4516.57903,N,07553.05680,W,1,10,0.96,101.3,M,-34.3,M,,*77
$GNGSA,A,3,11,20,06,12,25,09,19,29,04,,,,1.67,0.96,1.37*18
$GNGSA,A,3,82,,,,,,,,,,,,1.67,0.96,1.37*1C
$GPGSV,3,1,11,04,10,034,23,05,30,219,16,06,47,069,29,09,27,062,12*79
$GPGSV,3,2,11,11,76,016,33,12,39,243,27,17,00,133,08,19,23,132,16*76
$GPGSV,3,3,11,20,70,219,30,25,31,287,24,29,12,310,16*46
$GLGSV,3,1,10,66,05,020,,67,47,057,22,68,48,139,,69,10,177,*67
$GLGSV,3,2,10,73,17,249,,74,25,296,,75,08,345,,82,35,085,27*6D
$GLGSV,3,3,10,83,64,026,,84,24,299,*61
$GNGLL,4516.57903,N,07553.05680,W,201357.00,A,A*66
$GNRMC,201358.00,A,4516.57896,N,07553.05676,W,0.074,,180425,,,A*7D
$GNVTG,,T,,M,0.074,N,0.137,K,A*3B
$GNGGA,201358.00,4516.57896,N,07553.05676,W,1,10,0.96,101.1,M,-34.3,M,,*7E
$GNGSA,A,3,11,20,06,12,25,09,19,29,04,,,,1.67,0.96,1.37*18
$GNGSA,A,3,82,,,,,,,,,,,,1.67,0.96,1.37*1C
$GPGSV,3,1,11,04,10,034,22,05,30,219,17,06,47,069,29,09,27,062,10*7B
$GPGSV,3,2,11,11,76,016,33,12,39,243,27,17,00,133,08,19,23,132,16*76
$GPGSV,3,3,11,20,70,219,30,25,31,287,25,29,12,310,16*47
$GLGSV,3,1,10,66,05,020,,67,47,057,22,68,48,139,,69,10,177,*67
$GLGSV,3,2,10,73,17,249,,74,25,296,,75,08,345,,82,35,085,27*6D
$GLGSV,3,3,10,83,64,026,,84,24,299,*61
$GNGLL,4516.57896,N,07553.05676,W,201358.00,A,A*6D
$GNRMC,201359.00,A,4516.57891,N,07553.05670,W,0.030,,180425,,,A*7D
$GNVTG,,T,,M,0.030,N,0.056,K,A*3D
$GNGGA,201359.00,4516.57891,N,07553.05670,W,1,09,0.99,100.9,M,-34.3,M,,*70
$GNGSA,A,3,11,20,06,12,25,19,29,04,,,,,1.69,0.99,1.37*10
$GNGSA,A,3,82,,,,,,,,,,,,1.69,0.99,1.37*1D
$GPGSV,3,1,11,04,10,034,23,05,30,219,16,06,47,069,29,09,27,062,10*7B
$GPGSV,3,2,11,11,76,016,33,12,39,243,27,17,00,133,08,19,23,132,17*77
$GPGSV,3,3,11,20,70,219,30,25,31,287,24,29,12,310,16*46
$GLGSV,3,1,10,66,05,020,,67,47,057,22,68,48,139,,69,10,177,*67
$GLGSV,3,2,10,73,17,249,,74,25,296,,75,08,345,,82,35,085,27*6D
$GLGSV,3,3,10,83,64,026,,84,24,299,*61
$GNGLL,4516.57891,N,07553.05670,W,201359.00,A,A*6D
$GNRMC,201400.00,A,4516.57894,N,07553.05669,W,0.229,,180425,,,A*71
$GNVTG,,T,,M,0.229,N,0.424,K,A*36
$GNGGA,201400.00,4516.57894,N,07553.05669,W,1,09,0.99,100.5,M,-34.3,M,,*7A
$GNGSA,A,3,11,20,06,12,25,19,29,04,,,,,1.69,0.99,1.37*10
$GNGSA,A,3,82,,,,,,,,,,,,1.69,0.99,1.37*1D
$GPGSV,3,1,11,04,10,034,23,05,30,219,16,06,47,069,29,09,27,062,09*73
$GPGSV,3,2,11,11,76,016,33,12,39,243,27,17,00,133,08,19,23,132,17*77
$GPGSV,3,3,11,20,70,219,31,25,31,287,24,29,12,310,15*44
$GLGSV,3,1,10,66,05,020,,67,47,057,21,68,48,139,,69,10,177,20*66
$GLGSV,3,2,10,73,17,249,,74,25,296,,75,08,345,,82,35,085,27*6D
$GLGSV,3,3,10,83,64,026,,84,24,299,*61
$GNGLL,4516.57894,N,07553.05669,W,201400.00,A,A*6B
$GNRMC,201401.00,A,4516.57900,N,07553.05670,W,0.241,,180425,,,A*7A
$GNVTG,,T,,M,0.241,N,0.447,K,A*3D
$GNGGA,201401.00,4516.57900,N,07553.05670,W,1,09,0.99,100.1,M,-34.3,M,,*7B
$GNGSA,A,3,11,20,06,12,25,19,29,04,,,,,1.69,0.99,1.37*10
$GNGSA,A,3,82,,,,,,,,,,,,1.69,0.99,1.37*1D
$GPGSV,3,1,11,04,10,034,23,05,30,219,15,06,47,069,29,09,27,062,09*70
$GPGSV,3,2,11,11,76,016,33,12,39,243,27,17,00,133,08,19,23,132,17*77
$GPGSV,3,3,11,20,70,219,30,25,31,287,24,29,12,310,14*44
$GLGSV,3,1,10,66,05,020,,67,47,057,21,68,48,139,,69,10,177,20*66
$GLGSV,3,2,10,73,17,249,,74,25,296,,75,08,345,,82,35,085,27*6D
$GLGSV,3,3,10,83,64,026,,84,24,299,*61
$GNGLL,4516.57900,N,07553.05670,W,201401.00,A,A*6E
$GNRMC,201402.00,A,4516.57897,N,07553.05669,W,0.062,,180425,,,A*7D
$GNVTG,,T,,M,0.062,N,0.114,K,A*3D
$GNGGA,201402.00,4516.57897,N,07553.05669,W,1,10,0.96,100.1,M,-34.3,M,,*78
$GNGSA,A,3,11,20,06,12,25,09,19,29,04,,,,1.67,0.96,1.37*18
$GNGSA,A,3,82,,,,,,,,,,,,1.67,0.96,1.37*1C
$GPGSV,3,1,11,04,10,034,23,05,30,219,15,06,47,069,28,09,27,062,13*7A
$GPGSV,3,2,11,11,76,016,33,12,39,243,27,17,00,133,,19,23,132,18*70
$GPGSV,3,3,11,20,70,219,30,25,31,287,24,29,12,310,15*45
$GLGSV,3,1,10,66,05,020,,67,47,057,21,68,48,139,,69,10,177,20*66
$GLGSV,3,2,10,73,17,249,,74,25,296,,75,08,345,,82,35,085,26*6C
$GLGSV,3,3,10,83,64,026,,84,24,299,*61
$GNGLL,4516.57897,N,07553.05669,W,201402.00,A,A*6A
$GNRMC,201403.00,A,4516.57896,N,07553.05666,W,0.075,,180425,,,A*74
$GNVTG,,T,,M,0.075,N,0.139,K,A*34
$GNGGA,201403.00,4516.57896,N,07553.05666,W,1,10,0.96,99.9,M,-34.3,M,,*4E
$GNGSA,A,3,11,20,06,12,25,09,19,29,04,,,,1.67,0.96,1.37*18
$GNGSA,A,3,82,,,,,,,,,,,,1.67,0.96,1.37*1C
$GPGSV,3,1,11,04,10,034,23,05,30,219,15,06,47,069,28,09,27,062,13*7A
$GPGSV,3,2,11,11,76,016,33,12,39,243,27,17,00,133,,19,23,132,18*70
$GPGSV,3,3,11,20,70,219,31,25,31,287,24,29,12,310,16*47
$GLGSV,3,1,10,66,05,020,,67,47,057,21,68,48,139,,69,10,177,19*6C
$GLGSV,3,2,10,73,17,249,,74,25,296,,75,08,345,,82,35,085,26*6C
$GLGSV,3,3,10,83,64,026,,84,24,299,*61
$GNGLL,4516.57896,N,07553.05666,W,201403.00,A,A*65
$GNRMC,201404.00,A,4516.57891,N,07553.05661,W,0.148,,180425,,,A*7C
$GNVTG,,T,,M,0.148,N,0.274,K,A*31
$GNGGA,201404.00,4516.57891,N,07553.05661,W,1,10,0.96,99.7,M,-34.3,M,,*47
$GNGSA,A,3,11,20,06,12,25,09,19,29,04,,,,1.67,0.96,1.37*18
$GNGSA,A,3,82,,,,,,,,,,,,1.67,0.96,1.37*1C
$GPGSV,3,1,11,04,10,034,23,05,30,219,14,06,47,069,28,09,27,062,13*7B
$GPGSV,3,2,11,11,76,016,33,12,39,243,27,17,00,133,,19,23,132,18*70
$GPGSV,3,3,11,20,70,219,30,25,31,287,24,29,12,310,16*46
$GLGSV,3,1,10,66,05,020,,67,47,057,21,68,48,139,,69,10,177,20*66
$GLGSV,3,2,10,73,17,249,,74,25,296,,75,08,345,,82,35,085,26*6C
$GLGSV,3,3,10,83,64,026,,84,24,299,*61
$GNGLL,4516.57891,N,07553.05661,W,201404.00,A,A*62
$GNRMC,201405.00,A,4516.57904,N,07553.05671,W,0.736,,180425,,,A*7E
$GNVTG,,T,,M,0.736,N,1.363,K,A*38
$GNGGA,201405.00,4516.57904,N,07553.05671,W,1,10,0.96,99.5,M,-34.3,M,,*48
$GNGSA,A,3,11,20,06,12,25,09,19,29,04,,,,1.67,0.96,1.37*18
$GNGSA,A,3,82,,,,,,,,,,,,1.67,0.96,1.37*1C
$GPGSV,3,1,11,04,10,033,22,05,30,219,13,06,47,069,28,09,27,062,13*7A
$GPGSV,3,2,11,11,76,016,33,12,39,243,27,17,00,133,,19,23,132,18*70
$GPGSV,3,3,11,20,70,219,31,25,31,287,23,29,12,310,15*43
$GLGSV,3,1,10,66,05,020,,67,47,057,21,68,48,139,,69,10,177,21*67
$GLGSV,3,2,10,73,17,249,,74,25,296,,75,08,345,,82,35,085,26*6C
$GLGSV,3,3,10,83,64,026,,84,24,299,*61
$GNGLL,4516.57904,N,07553.05671,W,201405.00,A,A*6F
$GNRMC,201406.00,A,4516.57904,N,07553.05672,W,0.058,,180425,,,A*71
$GNVTG,,T,,M,0.058,N,0.108,K,A*39
$GNGGA,201406.00,4516.57904,N,07553.05672,W,1,10,0.96,99.5,M,-34.3,M,,*48
$GNGSA,A,3,11,20,06,12,25,09,19,29,04,,,,1.67,0.96,1.37*18
$GNGSA,A,3,82,,,,,,,,,,,,1.67,0.96,1.37*1C
$GPGSV,3,1,11,04,10,033,23,05,31,219,11,06,47,069,28,09,27,062,13*78
$GPGSV,3,2,11,11,76,016,33,12,39,243,27,17,00,133,,19,23,132,18*70
$GPGSV,3,3,11,20,70,219,30,25,31,287,23,29,12,310,15*42
$GLGSV,3,1,10,66,05,020,,67,47,057,21,68,48,139,,69,10,177,20*66
$GLGSV,3,2,10,73,17,249,,74,25,296,,75,08,345,,82,35,085,26*6C
$GLGSV,3,3,10,83,64,026,,84,24,299,*61
$GNGLL,4516.57904,N,07553.05672,W,201406.00,A,A*6F
$GNRMC,201407.00,A,4516.57890,N,07553.05663,W,0.553,,180425,,,A*72
$GNVTG,,T,,M,0.553,N,1.025,K,A*38
$GNGGA,201407.00,4516.57890,N,07553.05663,W,1,10,0.96,99.4,M,-34.3,M,,*44
$GNGSA,A,3,11,20,06,12,25,09,19,29,04,,,,1.67,0.96,1.37*18
$GNGSA,A,3,82,,,,,,,,,,,,1.67,0.96,1.37*1C
$GPGSV,3,1,11,04,10,033,23,05,31,219,,06,46,070,28,09,27,062,13*71
$GPGSV,3,2,11,11,76,016,33,12,39,243,27,17,00,133,,19,23,132,17*7F
$GPGSV,3,3,11,20,70,219,31,25,31,287,23,29,12,310,14*42
$GLGSV,3,1,10,66,05,020,,67,47,057,21,68,48,139,,69,10,177,20*66
$GLGSV,3,2,10,73,17,249,,74,25,296,,75,08,345,,82,35,085,26*6C
$GLGSV,3,3,10,83,64,026,,84,24,299,*61
$GNGLL,4516.57890,N,07553.05663,W,201407.00,A,A*62
$GNRMC,201408.00,A,4516.57873,N,07553.05656,W,0.526,,180425,,,A*74
$GNVTG,,T,,M,0.526,N,0.974,K,A*36
$GNGGA,201408.00,4516.57873,N,07553.05656,W,1,10,0.96,99.4,M,-34.3,M,,*40
$GNGSA,A,3,11,20,06,12,25,09,19,29,04,,,,1.67,0.96,1.37*18
$GNGSA,A,3,82,,,,,,,,,,,,1.67,0.96,1.37*1C
$GPGSV,3,1,11,04,10,033,23,05,31,219,,06,46,070,28,09,27,062,10*72
$GPGSV,3,2,11,11,76,016,33,12,39,243,27,17,00,133,,19,23,132,17*7F
$GPGSV,3,3,11,20,70,219,31,25,31,287,23,29,12,310,13*45
$GLGSV,3,1,10,66,05,020,,67,47,057,21,68,48,139,,69,10,177,20*66
$GLGSV,3,2,10,73,17,249,,74,25,296,,75,08,345,,82,35,085,27*6D
$GLGSV,3,3,10,83,64,026,,84,24,299,*61
$GNGLL,4516.57873,N,07553.05656,W,201408.00,A,A*66
$GNRMC,201409.00,A,4516.57839,N,07553.05640,W,1.091,150.84,180425,,,A*62
$GNVTG,150.84,T,,M,1.091,N,2.021,K,A*23
$GNGGA,201409.00,4516.57839,N,07553.05640,W,1,10,0.96,99.8,M,-34.3,M,,*44
$GNGSA,A,3,11,20,06,12,25,09,19,29,04,,,,1.67,0.96,1.37*18
$GNGSA,A,3,82,,,,,,,,,,,,1.67,0.96,1.37*1C
$GPGSV,3,1,11,04,10,033,23,05,31,219,,06,46,070,28,09,27,062,10*72
$GPGSV,3,2,11,11,76,016,33,12,39,243,27,17,00,133,,19,23,132,17*7F
$GPGSV,3,3,11,20,70,219,31,25,31,287,22,29,12,310,12*45
$GLGSV,3,1,10,66,05,020,,67,47,057,21,68,48,139,,69,10,177,19*6C
$GLGSV,3,2,10,73,17,249,,74,25,296,,75,08,345,,82,35,085,27*6D
$GLGSV,3,3,10,83,64,026,,84,24,299,*61
$GNGLL,4516.57839,N,07553.05640,W,201409.00,A,A*6E
$GNRMC,201410.00,A,4516.57832,N,07553.05639,W,0.229,,180425,,,A*79
$GNVTG,,T,,M,0.229,N,0.424,K,A*36
$GNGGA,201410.00,4516.57832,N,07553.05639,W,1,10,0.96,99.8,M,-34.3,M,,*49
$GNGSA,A,3,11,20,06,12,25,09,19,29,04,,,,1.67,0.96,1.37*18
$GNGSA,A,3,82,,,,,,,,,,,,1.67,0.96,1.37*1C
$GPGSV,3,1,11,04,10,033,23,05,31,219,,06,46,070,28,09,27,062,10*72
$GPGSV,3,2,11,11,76,016,33,12,39,243,27,17,00,133,,19,23,132,17*7F
$GPGSV,3,3,11,20,70,219,31,25,31,287,22,29,12,310,13*44
$GLGSV,3,1,10,66,05,020,,67,47,057,21,68,48,139,,69,10,177,19*6C
$GLGSV,3,2,10,73,17,249,,74,25,296,,75,08,345,,82,35,085,27*6D
$GLGSV,3,3,10,83,64,026,,84,24,299,*61
$GNGLL,4516.57832,N,07553.05639,W,201410.00,A,A*63
$GNRMC,201411.00,A,4516.57826,N,07553.05638,W,0.268,,180425,,,A*79
$GNVTG,,T,,M,0.268,N,0.497,K,A*3B
$GNGGA,201411.00,4516.57826,N,07553.05638,W,1,10,0.96,99.7,M,-34.3,M,,*43
$GNGSA,A,3,11,20,06,12,25,09,19,29,04,,,,1.67,0.96,1.37*18
$GNGSA,A,3,82,,,,,,,,,,,,1.67,0.96,1.37*1C
$GPGSV,3,1,11,04,10,033,23,05,31,219,,06,46,070,28,09,27,062,10*72
$GPGSV,3,2,11,11,76,016,33,12,39,243,27,17,00,133,,19,23,132,17*7F
$GPGSV,3,3,11,20,70,219,31,25,31,287,22,29,12,310,14*43
$GLGSV,3,1,10,66,05,020,,67,47,057,21,68,48,139,,69,10,177,20*66
$GLGSV,3,2,10,73,17,249,,74,25,296,,75,08,345,,82,35,085,27*6D
$GLGSV,3,3,10,83,64,026,,84,24,299,*61
$GNGLL,4516.57826,N,07553.05638,W,201411.00,A,A*66
$GNRMC,201412.00,A,4516.57829,N,07553.05642,W,0.232,,180425,,,A*77
$GNVTG,,T,,M,0.232,N,0.429,K,A*31
$GNGGA,201412.00,4516.57829,N,07553.05642,W,1,10,0.96,99.6,M,-34.3,M,,*43
$GNGSA,A,3,11,20,06,12,25,09,19,29,04,,,,1.67,0.96,1.37*18
$GNGSA,A,3,82,,,,,,,,,,,,1.67,0.96,1.37*1C
$GPGSV,3,1,11,04,10,033,23,05,31,219,,06,46,070,28,09,27,062,10*72
$GPGSV,3,2,11,11,76,019,33,12,39,243,27,17,00,133,,19,23,132,17*70
$GPGSV,3,3,11,20,70,219,31,25,31,287,22,29,12,310,13*44
$GLGSV,3,1,10,66,05,020,,67,47,057,22,68,48,139,,69,10,177,21*64
$GLGSV,3,2,10,73,17,249,,74,25,296,,75,08,345,,82,35,085,26*6C
$GLGSV,3,3,10,83,64,026,,84,24,299,*61
$GNGLL,4516.57829,N,07553.05642,W,201412.00,A,A*67
$GNRMC,201413.00,A,4516.57837,N,07553.05652,W,0.431,,180425,,,A*7D
$GNVTG,,T,,M,0.431,N,0.799,K,A*3C
$GNGGA,201413.00,4516.57837,N,07553.05652,W,1,10,0.96,99.7,M,-34.3,M,,*4D
$GNGSA,A,3,11,20,06,12,25,09,19,29,04,,,,1.67,0.96,1.37*18
$GNGSA,A,3,82,,,,,,,,,,,,1.67,0.96,1.37*1C
$GPGSV,3,1,11,04,10,033,23,05,31,219,,06,46,070,28,09,27,062,10*72
$GPGSV,3,2,11,11,76,019,33,12,38,243,27,17,00,133,,19,23,132,17*71
$GPGSV,3,3,11,20,70,219,31,25,31,287,22,29,12,310,14*43
$GLGSV,3,1,10,66,05,020,,67,47,057,22,68,48,139,,69,10,177,21*64
$GLGSV,3,2,10,73,17,249,,74,25,296,,75,08,345,,82,35,085,27*6D
$GLGSV,3,3,10,83,64,026,,84,24,299,*61
$GNGLL,4516.57837,N,07553.05652,W,201413.00,A,A*68
$GNRMC,201414.00,A,4516.57841,N,07553.05662,W,0.096,,180425,,,A*71
$GNVTG,,T,,M,0.096,N,0.178,K,A*3C
$GNGGA,201414.00,4516.57841,N,07553.05662,W,1,10,0.96,99.4,M,-34.3,M,,*4B
$GNGSA,A,3,11,20,06,12,25,09,19,29,04,,,,1.67,0.96,1.37*18
$GNGSA,A,3,82,,,,,,,,,,,,1.67,0.96,1.37*1C
$GPGSV,3,1,11,04,10,033,23,05,31,219,,06,46,070,28,09,27,062,11*73
$GPGSV,3,2,11,11,76,019,34,12,38,243,27,17,00,133,,19,23,132,17*76
$GPGSV,3,3,11,20,70,219,30,25,31,287,22,29,12,310,14*42
$GLGSV,3,1,10,66,05,020,,67,47,057,22,68,48,139,,69,10,177,21*64
$GLGSV,3,2,10,73,17,249,,74,25,296,,75,08,345,,82,35,085,27*6D
$GLGSV,3,3,10,83,64,026,,84,24,299,*61
$GNGLL,4516.57841,N,07553.05662,W,201414.00,A,A*6D
$GNRMC,201415.00,A,4516.57838,N,07553.05667,W,0.041,,180425,,,A*71
$GNVTG,,T,,M,0.041,N,0.075,K,A*3A
$GNGGA,201415.00,4516.57838,N,07553.05667,W,1,10,0.99,99.5,M,-34.3,M,,*4F
$GNGSA,A,3,11,20,06,12,25,09,19,29,04,,,,1.69,0.99,1.37*19
$GNGSA,A,3,82,,,,,,,,,,,,1.69,0.99,1.37*1D
$GPGSV,3,1,11,04,10,033,23,05,31,219,,06,46,070,28,09,27,062,11*73
$GPGSV,3,2,11,11,76,019,33,12,38,243,27,17,00,133,,19,23,132,17*71
$GPGSV,3,3,11,20,70,219,30,25,31,287,22,29,12,310,14*42
$GLGSV,3,1,10,66,05,020,,67,47,057,22,68,48,139,,69,10,177,21*64
$GLGSV,3,2,10,73,17,249,,74,25,296,,75,08,345,,82,35,085,26*6C
$GLGSV,3,3,10,83,64,026,,84,24,299,*61
$GNGLL,4516.57838,N,07553.05667,W,201415.00,A,A*67
$GNRMC,201416.00,A,4516.57836,N,07553.05669,W,0.182,,180425,,,A*7C
$GNVTG,,T,,M,0.182,N,0.337,K,A*31
$GNGGA,201416.00,4516.57836,N,07553.05669,W,1,10,0.96,99.5,M,-34.3,M,,*43
$GNGSA,A,3,11,20,06,12,25,09,19,29,04,,,,1.67,0.96,1.37*18
$GNGSA,A,3,82,,,,,,,,,,,,1.67,0.96,1.37*1C
$GPGSV,3,1,11,04,10,033,23,05,31,219,,06,46,070,27,09,27,062,11*7C
$GPGSV,3,2,11,11,76,019,33,12,38,243,27,17,00,133,,19,23,132,16*70
$GPGSV,3,3,11,20,70,219,31,25,31,287,21,29,12,310,14*40
$GLGSV,3,1,10,66,05,020,,67,47,057,23,68,48,139,,69,10,177,20*64
$GLGSV,3,2,10,73,17,249,,74,25,296,,75,08,345,,82,35,085,26*6C
$GLGSV,3,3,10,83,64,026,,84,24,299,*61
$GNGLL,4516.57836,N,07553.05669,W,201416.00,A,A*64
$GNRMC,201417.00,A,4516.57845,N,07553.05680,W,0.416,,180425,,,A*76
$GNVTG,,T,,M,0.416,N,0.771,K,A*3F
$GNGGA,201417.00,4516.57845,N,07553.05680,W,1,10,0.96,99.3,M,-34.3,M,,*47
$GNGSA,A,3,11,20,06,12,25,09,19,29,04,,,,1.67,0.96,1.37*18
$GNGSA,A,3,82,,,,,,,,,,,,1.67,0.96,1.37*1C
$GPGSV,3,1,11,04,10,033,23,05,31,219,,06,46,070,27,09,27,062,11*7C
$GPGSV,3,2,11,11,76,019,33,12,38,243,27,17,00,133,,19,23,132,18*7E
$GPGSV,3,3,11,20,70,219,31,25,31,287,21,29,12,310,14*40
$GLGSV,3,1,10,66,05,020,,67,47,057,22,68,48,139,,69,10,177,20*65
$GLGSV,3,2,10,73,17,249,,74,25,296,,75,08,345,,82,35,085,26*6C
$GLGSV,3,3,10,83,64,026,,84,24,299,*61
$GNGLL,4516.57845,N,07553.05680,W,201417.00,A,A*66
$GNRMC,201418.00,A,4516.57847,N,07553.05690,W,0.100,,180425,,,A*78
$GNVTG,,T,,M,0.100,N,0.185,K,A*30
$GNGGA,201418.00,4516.57847,N,07553.05690,W,1,09,0.99,98.9,M,-34.3,M,,*47
$GNGSA,A,3,11,20,06,12,25,19,29,04,,,,,1.69,0.99,1.37*10
$GNGSA,A,3,82,,,,,,,,,,,,1.69,0.99,1.37*1D
$GPGSV,3,1,10,04,10,033,23,05,31,219,,06,46,070,27,09,27,062,*7D
$GPGSV,3,2,10,11,76,019,33,12,38,243,27,19,23,132,17,20,70,219,31*7A
$GPGSV,3,3,10,25,31,287,22,29,12,310,14*7F
$GLGSV,3,1,10,66,05,020,,67,47,057,22,68,48,139,,69,10,177,21*64
$GLGSV,3,2,10,73,17,249,,74,25,296,,75,08,345,,82,35,085,26*6C
$GLGSV,3,3,10,83,64,026,,84,24,299,*61
$GNGLL,4516.57847,N,07553.05690,W,201418.00,A,A*6A
$GNRMC,201419.00,A,4516.57848,N,07553.05696,W,0.089,,180425,,,A*70
$GNVTG,,T,,M,0.089,N,0.165,K,A*3E
$GNGGA,201419.00,4516.57848,N,07553.05696,W,1,09,0.99,98.7,M,-34.3,M,,*41
$GNGSA,A,3,11,20,06,12,25,19,29,04,,,,,1.69,0.99,1.37*10
$GNGSA,A,3,82,,,,,,,,,,,,1.69,0.99,1.37*1D
$GPGSV,3,1,10,04,10,033,23,05,31,219,,06,46,070,27,09,27,062,*7D
$GPGSV,3,2,10,11,76,019,33,12,38,243,27,19,23,132,17,20,70,219,31*7A
$GPGSV,3,3,10,25,31,287,22,29,12,310,14*7F
$GLGSV,3,1,10,66,05,020,,67,47,057,22,68,48,139,,69,10,177,20*65
$GLGSV,3,2,10,73,17,249,,74,25,296,,75,08,345,,82,35,085,26*6C
$GLGSV,3,3,10,83,64,026,,84,24,299,*61
$GNGLL,4516.57848,N,07553.05696,W,201419.00,A,A*62
$GNRMC,201420.00,A,4516.57853,N,07553.05704,W,0.196,,180425,,,A*75
$GNVTG,,T,,M,0.196,N,0.362,K,A*34
$GNGGA,201420.00,4516.57853,N,07553.05704,W,1,09,0.99,98.6,M,-34.3,M,,*4A
$GNGSA,A,3,11,20,06,12,25,19,29,04,,,,,1.69,0.99,1.37*10
$GNGSA,A,3,82,,,,,,,,,,,,1.69,0.99,1.37*1D
$GPGSV,3,1,10,04,10,033,23,05,31,219,,06,46,070,27,09,27,062,*7D
$GPGSV,3,2,10,11,76,019,33,12,38,243,27,19,23,133,17,20,70,219,31*7B
$GPGSV,3,3,10,25,31,287,22,29,12,310,15*7E
$GLGSV,3,1,10,66,05,020,,67,47,057,22,68,48,139,,69,10,177,20*65
$GLGSV,3,2,10,73,17,249,,74,25,296,,75,08,345,,82,35,085,26*6C
$GLGSV,3,3,10,83,64,026,,84,24,299,*61
$GNGLL,4516.57853,N,07553.05704,W,201420.00,A,A*68
$GNRMC,201421.00,A,4516.57873,N,07553.05719,W,0.652,,180425,,,A*75
$GNVTG,,T,,M,0.652,N,1.208,K,A*37
$GNGGA,201421.00,4516.57873,N,07553.05719,W,1,09,0.99,98.0,M,-34.3,M,,*43
$GNGSA,A,3,11,20,06,12,25,19,29,04,,,,,1.69,0.99,1.37*10
$GNGSA,A,3,82,,,,,,,,,,,,1.69,0.99,1.37*1D
$GPGSV,3,1,10,04,10,033,23,05,31,219,,06,46,070,26,09,27,062,06*7A
$GPGSV,3,2,10,11,76,019,33,12,38,243,27,19,23,133,17,20,71,219,31*7A
$GPGSV,3,3,10,25,31,287,22,29,12,310,15*7E
$GLGSV,3,1,10,66,05,020,,67,47,057,23,68,48,139,,69,10,177,20*64
$GLGSV,3,2,10,73,17,249,,74,25,296,,75,08,345,,82,35,085,26*6C
$GLGSV,3,3,10,83,64,026,,84,24,299,*61
$GNGLL,4516.57873,N,07553.05719,W,201421.00,A,A*67
$GNRMC,201422.00,A,4516.57876,N,07553.05727,W,0.143,,180425,,,A*79
$GNVTG,,T,,M,0.143,N,0.264,K,A*3B
$GNGGA,201422.00,4516.57876,N,07553.05727,W,1,09,0.99,97.9,M,-34.3,M,,*4E
$GNGSA,A,3,11,20,06,12,25,19,29,04,,,,,1.69,0.99,1.37*10
$GNGSA,A,3,82,,,,,,,,,,,,1.69,0.99,1.37*1D
$GPGSV,3,1,10,04,10,033,23,05,31,219,,06,46,070,26,09,27,062,08*74
$GPGSV,3,2,10,11,76,019,33,12,38,243,27,19,23,133,18,20,71,219,31*75
$GPGSV,3,3,10,25,31,287,22,29,12,310,14*7F
$GLGSV,3,1,10,66,05,020,,67,47,057,22,68,48,139,,69,10,177,20*65
$GLGSV,3,2,10,73,17,249,,74,25,296,,75,08,345,,82,35,085,25*6F
$GLGSV,3,3,10,83,64,026,,84,24,299,*61
$GNGLL,4516.57876,N,07553.05727,W,201422.00,A,A*6C
$GNRMC,201423.00,A,4516.57871,N,07553.05728,W,0.152,,180425,,,A*70
$GNVTG,,T,,M,0.152,N,0.281,K,A*30
$GNGGA,201423.00,4516.57871,N,07553.05728,W,1,09,0.99,98.2,M,-34.3,M,,*43
$GNGSA,A,3,11,20,06,12,25,19,29,04,,,,,1.69,0.99,1.37*10
$GNGSA,A,3,82,,,,,,,,,,,,1.69,0.99,1.37*1D
$GPGSV,3,1,10,04,10,033,23,05,31,219,,06,46,070,26,09,27,062,09*75
$GPGSV,3,2,10,11,76,019,33,12,38,243,27,19,23,133,18,20,71,219,31*75
$GPGSV,3,3,10,25,31,287,21,29,12,310,12*7A
$GLGSV,3,1,10,66,05,020,,67,47,057,22,68,48,139,,69,10,177,20*65
$GLGSV,3,2,10,73,17,249,,74,25,296,,75,08,345,,82,35,085,25*6F
$GLGSV,3,3,10,83,64,026,,84,24,299,*61
$GNGLL,4516.57871,N,07553.05728,W,201423.00,A,A*65
$GNRMC,201424.00,A,4516.57875,N,07553.05733,W,0.042,,180425,,,A*79
$GNVTG,,T,,M,0.042,N,0.077,K,A*3B
$GNGGA,201424.00,4516.57875,N,07553.05733,W,1,09,0.99,98.2,M,-34.3,M,,*4A
$GNGSA,A,3,11,20,06,12,25,19,29,04,,,,,1.69,0.99,1.37*10
$GNGSA,A,3,82,,,,,,,,,,,,1.69,0.99,1.37*1D
$GPGSV,3,1,10,04,10,033,23,05,31,219,,06,46,070,26,09,27,062,09*75
$GPGSV,3,2,10,11,76,019,33,12,38,243,27,19,23,133,18,20,71,219,31*75
$GPGSV,3,3,10,25,31,287,21,29,12,310,12*7A
$GLGSV,3,1,10,66,05,020,,67,47,057,22,68,48,139,,69,10,177,20*65
$GLGSV,3,2,10,73,17,249,,74,25,296,,75,08,345,,82,35,085,26*6C
$GLGSV,3,3,10,83,64,026,,84,24,299,*61
$GNGLL,4516.57875,N,07553.05733,W,201424.00,A,A*6C
$GNRMC,201425.00,A,4516.57875,N,07553.05733,W,0.080,,180425,,,A*76
$GNVTG,,T,,M,0.080,N,0.148,K,A*38
$GNGGA,201425.00,4516.57875,N,07553.05733,W,1,09,0.99,98.4,M,-34.3,M,,*4D
$GNGSA,A,3,11,20,06,12,25,19,29,04,,,,,1.69,0.99,1.37*10
$GNGSA,A,3,82,,,,,,,,,,,,1.69,0.99,1.37*1D
$GPGSV,3,1,10,04,10,033,23,05,31,219,,06,46,070,26,09,27,062,12*7F
$GPGSV,3,2,10,11,76,019,34,12,38,243,27,19,23,133,17,20,71,219,31*7D
$GPGSV,3,3,10,25,31,286,21,29,12,310,11*78
$GLGSV,3,1,10,66,05,020,,67,47,057,21,68,48,139,,69,10,177,20*66
$GLGSV,3,2,10,73,17,249,,74,25,296,,75,08,345,,82,35,085,26*6C
$GLGSV,3,3,10,83,64,026,,84,24,299,*61
$GNGLL,4516.57875,N,07553.05733,W,201425.00,A,A*6D
$GNRMC,201426.00,A,4516.57881,N,07553.05735,W,0.171,,180425,,,A*77
$GNVTG,,T,,M,0.171,N,0.316,K,A*3E
$GNGGA,201426.00,4516.57881,N,07553.05735,W,1,09,0.99,98.3,M,-34.3,M,,*44
$GNGSA,A,3,11,20,06,12,25,19,29,04,,,,,1.69,0.99,1.37*10
$GNGSA,A,3,82,,,,,,,,,,,,1.69,0.99,1.37*1D
$GPGSV,3,1,10,04,10,033,23,05,31,219,,06,46,070,26,09,27,062,10*7D
$GPGSV,3,2,10,11,76,019,34,12,38,243,27,19,23,133,17,20,71,219,31*7D
$GPGSV,3,3,10,25,31,286,21,29,12,310,12*7B
$GLGSV,3,1,10,66,05,020,,67,47,057,21,68,48,139,,69,10,177,20*66
$GLGSV,3,2,10,73,17,249,,74,25,296,,75,08,345,,82,35,085,26*6C
$GLGSV,3,3,10,83,64,026,,84,24,299,*61
$GNGLL,4516.57881,N,07553.05735,W,201426.00,A,A*63
$GNRMC,201427.00,A,4516.57879,N,07553.05729,W,0.079,,180425,,,A*75
$GNVTG,,T,,M,0.079,N,0.146,K,A*30
$GNGGA,201427.00,4516.57879,N,07553.05729,W,1,09,0.99,98.6,M,-34.3,M,,*4A
$GNGSA,A,3,11,20,06,12,25,19,29,04,,,,,1.69,0.99,1.37*10
$GNGSA,A,3,82,,,,,,,,,,,,1.69,0.99,1.37*1D
$GPGSV,3,1,10,04,10,033,23,05,31,219,,06,46,070,26,09,27,062,10*7D
$GPGSV,3,2,10,11,76,019,34,12,38,243,28,19,23,133,19,20,71,219,31*7C
$GPGSV,3,3,10,25,31,286,21,29,12,310,13*7A
$GLGSV,3,1,10,66,05,020,,67,47,057,21,68,48,139,,69,10,177,21*67
$GLGSV,3,2,10,73,17,249,,74,25,296,,75,08,345,,82,35,085,26*6C
$GLGSV,3,3,10,83,64,027,,84,24,299,*60
$GNGLL,4516.57879,N,07553.05729,W,201427.00,A,A*68
$GNRMC,201428.00,A,4516.57887,N,07553.05729,W,0.256,,180425,,,A*74
$GNVTG,,T,,M,0.256,N,0.474,K,A*3B
$GNGGA,201428.00,4516.57887,N,07553.05729,W,1,09,0.99,98.7,M,-34.3,M,,*45
$GNGSA,A,3,11,20,06,12,25,19,29,04,,,,,1.69,0.99,1.37*10
$GNGSA,A,3,82,,,,,,,,,,,,1.69,0.99,1.37*1D
$GPGSV,3,1,10,04,10,033,23,05,31,219,,06,46,070,26,09,27,062,10*7D
$GPGSV,3,2,10,11,76,019,33,12,38,243,28,19,23,133,20,20,71,219,31*71
$GPGSV,3,3,10,25,31,286,20,29,12,310,14*7C
$GLGSV,3,1,10,66,05,020,,67,47,057,21,68,48,139,,69,10,177,21*67
$GLGSV,3,2,10,73,17,249,,74,25,296,,75,08,345,,82,35,085,26*6C
$GLGSV,3,3,10,83,64,027,,84,24,299,*60
$GNGLL,4516.57887,N,07553.05729,W,201428.00,A,A*66
$GNRMC,201429.00,A,4516.57897,N,07553.05733,W,0.398,,180425,,,A*7C
$GNVTG,,T,,M,0.398,N,0.737,K,A*3C
$GNGGA,201429.00,4516.57897,N,07553.05733,W,1,10,0.96,98.9,M,-34.3,M,,*47
$GNGSA,A,3,11,20,06,12,25,09,19,29,04,,,,1.67,0.96,1.37*18
$GNGSA,A,3,82,,,,,,,,,,,,1.67,0.96,1.37*1C
$GPGSV,3,1,10,04,10,033,23,05,31,219,,06,46,070,26,09,27,062,10*7D
$GPGSV,3,2,10,11,76,019,34,12,38,243,28,19,23,133,19,20,71,219,31*7C
$GPGSV,3,3,10,25,31,286,21,29,13,310,15*7D
$GLGSV,3,1,10,66,05,020,,67,47,057,21,68,48,139,,69,10,177,21*67
$GLGSV,3,2,10,73,17,249,,74,25,296,,75,08,345,,82,35,085,26*6C
$GLGSV,3,3,10,83,64,027,,84,24,299,*60
$GNGLL,4516.57897,N,07553.05733,W,201429.00,A,A*6D
$GNRMC,201430.00,A,4516.57896,N,07553.05728,W,0.105,,180425,,,A*79
$GNVTG,,T,,M,0.105,N,0.194,K,A*35
$GNGGA,201430.00,4516.57896,N,07553.05728,W,1,10,0.96,99.2,M,-34.3,M,,*4E
$GNGSA,A,3,11,20,06,12,25,09,19,29,04,,,,1.67,0.96,1.37*18
$GNGSA,A,3,82,,,,,,,,,,,,1.67,0.96,1.37*1C
$GPGSV,3,1,10,04,10,033,23,05,31,219,,06,46,070,25,09,27,062,10*7E
$GPGSV,3,2,10,11,76,019,33,12,38,243,28,19,23,133,18,20,71,219,31*7A
$GPGSV,3,3,10,25,31,286,21,29,13,310,14*7C
$GLGSV,3,1,10,66,05,020,,67,47,057,21,68,48,139,,69,10,177,21*67
$GLGSV,3,2,10,73,17,249,,74,25,296,,75,08,345,,82,35,085,26*6C
$GLGSV,3,3,10,83,64,027,,84,24,299,*60
$GNGLL,4516.57896,N,07553.05728,W,201430.00,A,A*6E
$GNRMC,201431.00,A,4516.57908,N,07553.05735,W,0.408,,180425,,,A*7A
$GNVTG,,T,,M,0.408,N,0.757,K,A*34
$GNGGA,201431.00,4516.57908,N,07553.05735,W,1,10,0.96,99.3,M,-34.3,M,,*44
$GNGSA,A,3,11,20,06,12,25,09,19,29,04,,,,1.67,0.96,1.37*18
$GNGSA,A,3,82,,,,,,,,,,,,1.67,0.96,1.37*1C
$GPGSV,3,1,10,04,10,033,23,05,31,219,,06,46,070,25,09,27,062,10*7E
$GPGSV,3,2,10,11,76,019,33,12,38,243,28,19,23,133,19,20,71,219,32*78
$GPGSV,3,3,10,25,31,286,21,29,13,310,14*7C
$GLGSV,3,1,10,66,05,020,,67,47,057,21,68,48,139,,69,10,177,21*67
$GLGSV,3,2,10,73,17,249,,74,25,296,,75,08,345,,82,35,085,26*6C
$GLGSV,3,3,10,83,64,027,,84,24,299,*60
$GNGLL,4516.57908,N,07553.05735,W,201431.00,A,A*65
$GNRMC,201432.00,A,4516.57901,N,07553.05731,W,0.308,,180425,,,A*73
$GNVTG,,T,,M,0.308,N,0.571,K,A*35
$GNGGA,201432.00,4516.57901,N,07553.05731,W,1,10,0.99,99.7,M,-34.3,M,,*41
$GNGSA,A,3,11,20,06,12,25,09,19,29,04,,,,1.69,0.99,1.37*19
$GNGSA,A,3,82,,,,,,,,,,,,1.69,0.99,1.37*1D
$GPGSV,3,1,10,04,10,033,22,05,31,219,,06,46,070,25,09,27,062,10*7F
$GPGSV,3,2,10,11,76,019,33,12,38,243,28,19,23,133,18,20,71,219,31*7A
$GPGSV,3,3,10,25,31,286,21,29,13,310,14*7C
$GLGSV,3,1,10,66,05,020,,67,47,057,21,68,48,139,,69,10,177,21*67
$GLGSV,3,2,10,73,17,249,,74,25,296,,75,08,345,,82,35,085,26*6C
$GLGSV,3,3,10,83,64,027,,84,24,299,*60
$GNGLL,4516.57901,N,07553.05731,W,201432.00,A,A*6B
$GNRMC,201433.00,A,4516.57923,N,07553.05741,W,0.860,,180425,,,A*70
$GNVTG,,T,,M,0.860,N,1.593,K,A*3D
$GNGGA,201433.00,4516.57923,N,07553.05741,W,1,10,0.96,99.8,M,-34.3,M,,*47
$GNGSA,A,3,11,20,06,12,25,09,19,29,04,,,,1.67,0.96,1.37*18
$GNGSA,A,3,82,,,,,,,,,,,,1.67,0.96,1.37*1C
$GPGSV,3,1,10,04,10,033,23,05,31,219,,06,46,070,24,09,27,062,10*7F
$GPGSV,3,2,10,11,76,019,33,12,38,243,28,19,23,133,17,20,71,219,31*75
$GPGSV,3,3,10,25,31,286,21,29,13,310,12*7A
$GLGSV,3,1,10,66,05,020,,67,47,057,21,68,48,139,,69,10,177,21*67
$GLGSV,3,2,10,73,17,249,,74,25,296,,75,08,345,,82,35,085,26*6C
$GLGSV,3,3,10,83,64,027,,84,24,299,*60
$GNGLL,4516.57923,N,07553.05741,W,201433.00,A,A*6D
$GNRMC,201434.00,A,4516.57923,N,07553.05736,W,0.374,,180425,,,A*79
$GNVTG,,T,,M,0.374,N,0.693,K,A*31
$GNGGA,201434.00,4516.57923,N,07553.05736,W,1,09,1.04,100.1,M,-34.3,M,,*7A
$GNGSA,A,3,11,20,06,12,25,09,19,04,,,,,1.82,1.04,1.49*1B
$GNGSA,A,3,82,,,,,,,,,,,,1.82,1.04,1.49*14
$GPGSV,3,1,10,04,10,033,23,05,31,219,,06,46,070,24,09,27,062,10*7F
$GPGSV,3,2,10,11,76,019,33,12,38,243,28,19,23,133,16,20,71,219,31*74
$GPGSV,3,3,10,25,31,286,21,29,13,310,09*70
$GLGSV,3,1,10,66,05,020,,67,47,057,21,68,48,139,,69,10,177,21*67
$GLGSV,3,2,10,73,17,249,,74,25,296,,75,08,345,,82,35,085,25*6F
$GLGSV,3,3,10,83,64,027,,84,24,299,*60
$GNGLL,4516.57923,N,07553.05736,W,201434.00,A,A*6A
$GNRMC,201435.00,A,4516.57931,N,07553.05736,W,0.103,,180425,,,A*79
$GNVTG,,T,,M,0.103,N,0.191,K,A*36
$GNGGA,201435.00,4516.57931,N,07553.05736,W,1,10,0.96,100.2,M,-34.3,M,,*79
$GNGSA,A,3,11,20,06,12,25,09,19,29,04,,,,1.67,0.96,1.37*18
$GNGSA,A,3,82,,,,,,,,,,,,1.67,0.96,1.37*1C
$GPGSV,3,1,10,04,10,033,22,05,31,219,,06,46,070,24,09,27,062,10*7E
$GPGSV,3,2,10,11,76,019,33,12,38,243,28,19,23,133,17,20,71,219,31*75
$GPGSV,3,3,10,25,31,286,21,29,13,310,08*71
$GLGSV,3,1,10,66,05,020,,67,47,057,21,68,48,139,,69,10,177,22*64
$GLGSV,3,2,10,73,17,249,,74,25,296,,75,08,345,,82,35,085,25*6F
$GLGSV,3,3,10,83,64,027,,84,24,299,*60
$GNGLL,4516.57931,N,07553.05736,W,201435.00,A,A*68
$GNRMC,201436.00,A,4516.57928,N,07553.05737,W,0.401,,180425,,,A*74
$GNVTG,,T,,M,0.401,N,0.742,K,A*39
$GNGGA,201436.00,4516.57928,N,07553.05737,W,1,09,1.04,100.6,M,-34.3,M,,*75
$GNGSA,A,3,11,20,06,12,25,09,19,04,,,,,1.82,1.04,1.49*1B
$GNGSA,A,3,82,,,,,,,,,,,,1.82,1.04,1.49*14
$GPGSV,3,1,10,04,10,033,23,05,31,219,,06,46,070,24,09,27,062,10*7F
$GPGSV,3,2,10,11,76,019,33,12,38,243,28,19,23,133,18,20,71,219,31*7A
$GPGSV,3,3,10,25,31,286,21,29,13,310,08*71
$GLGSV,3,1,10,66,05,020,,67,47,057,21,68,48,139,,69,10,177,21*67
$GLGSV,3,2,10,73,17,249,,74,25,296,,75,08,345,,82,35,085,25*6F
$GLGSV,3,3,10,83,64,027,,84,24,299,*60
$GNGLL,4516.57928,N,07553.05737,W,201436.00,A,A*62
$GNRMC,201437.00,A,4516.57940,N,07553.05747,W,0.230,,180425,,,A*78
$GNVTG,,T,,M,0.230,N,0.426,K,A*3C
$GNGGA,201437.00,4516.57940,N,07553.05747,W,1,10,0.96,100.6,M,-34.3,M,,*7F
$GNGSA,A,3,11,20,06,12,25,09,19,29,04,,,,1.67,0.96,1.36*19
$GNGSA,A,3,82,,,,,,,,,,,,1.67,0.96,1.36*1D
$GPGSV,3,1,10,04,10,033,23,05,31,219,,06,46,070,23,09,27,062,10*78
$GPGSV,3,2,10,11,76,019,34,12,38,243,28,19,23,133,18,20,71,219,31*7D
$GPGSV,3,3,10,25,31,286,21,29,13,310,10*78
$GLGSV,3,1,10,66,05,020,,67,47,057,21,68,48,139,,69,10,177,21*67
$GLGSV,3,2,10,73,17,249,,74,25,296,,75,08,345,,82,35,085,25*6F
$GLGSV,3,3,10,83,64,027,,84,24,299,*60
$GNGLL,4516.57940,N,07553.05747,W,201437.00,A,A*6A
$GNRMC,201438.00,A,4516.57937,N,07553.05747,W,0.309,,180425,,,A*7C
$GNVTG,,T,,M,0.309,N,0.573,K,A*36
$GNGGA,201438.00,4516.57937,N,07553.05747,W,1,10,0.99,100.8,M,-34.3,M,,*71
$GNGSA,A,3,11,20,06,12,25,09,19,29,04,,,,1.69,0.99,1.37*19
$GNGSA,A,3,82,,,,,,,,,,,,1.69,0.99,1.37*1D
$GPGSV,3,1,10,04,10,033,23,05,31,219,,06,46,070,23,09,27,062,07*7E
$GPGSV,3,2,10,11,76,019,33,12,38,243,28,19,23,133,17,20,71,219,31*75
$GPGSV,3,3,10,25,31,286,21,29,13,310,08*71
$GLGSV,3,1,10,66,05,020,19,67,47,057,21,68,48,139,,69,10,177,21*6F
$GLGSV,3,2,10,73,17,249,,74,25,296,,75,08,345,,82,35,085,24*6E
$GLGSV,3,3,10,83,64,027,,84,24,299,*60
$GNGLL,4516.57937,N,07553.05747,W,201438.00,A,A*65
$GNRMC,201439.00,A,4516.57929,N,07553.05736,W,0.540,,180425,,,A*7F
$GNVTG,,T,,M,0.540,N,1.001,K,A*3C
$GNGGA,201439.00,4516.57929,N,07553.05736,W,1,10,0.96,100.8,M,-34.3,M,,*76
$GNGSA,A,3,11,20,06,12,25,09,19,29,04,,,,1.67,0.96,1.36*19
$GNGSA,A,3,82,,,,,,,,,,,,1.67,0.96,1.36*1D
$GPGSV,3,1,10,04,10,033,23,05,31,219,,06,46,070,23,09,27,062,07*7E
$GPGSV,3,2,10,11,76,019,34,12,38,243,28,19,23,133,16,20,71,219,31*73
$GPGSV,3,3,10,25,31,286,21,29,13,310,08*71
$GLGSV,3,1,10,66,05,020,18,67,47,057,21,68,48,139,,69,10,177,21*6E
$GLGSV,3,2,10,73,17,249,,74,25,296,,75,08,345,,82,35,085,24*6E
$GLGSV,3,3,10,83,64,027,,84,24,299,*60
$GNGLL,4516.57929,N,07553.05736,W,201439.00,A,A*6D
$GNRMC,201440.00,A,4516.57920,N,07553.05727,W,0.446,,180425,,,A*7F
$GNVTG,,T,,M,0.446,N,0.825,K,A*34
$GNGGA,201440.00,4516.57920,N,07553.05727,W,1,10,0.96,101.2,M,-34.3,M,,*7A
$GNGSA,A,3,11,20,06,12,25,09,19,29,04,,,,1.67,0.96,1.36*19
$GNGSA,A,3,82,,,,,,,,,,,,1.67,0.96,1.36*1D
$GPGSV,3,1,10,04,10,033,23,05,31,219,,06,46,070,23,09,27,062,07*7E
$GPGSV,3,2,10,11,76,019,33,12,38,243,28,19,23,133,15,20,71,219,31*77
$GPGSV,3,3,10,25,31,286,21,29,13,310,08*71
$GLGSV,3,1,10,66,05,020,17,67,47,057,20,68,48,139,,69,10,177,21*60
$GLGSV,3,2,10,73,17,249,,74,25,296,,75,08,345,,82,35,085,24*6E
$GLGSV,3,3,10,83,64,027,,84,24,299,*60
$GNGLL,4516.57920,N,07553.05727,W,201440.00,A,A*6A
$GNRMC,201441.00,A,4516.57944,N,07553.05748,W,1.041,,180425,,,A*77
$GNVTG,,T,,M,1.041,N,1.928,K,A*3B
$GNGGA,201441.00,4516.57944,N,07553.05748,W,1,09,0.99,101.3,M,-34.3,M,,*76
$GNGSA,A,3,11,20,06,12,25,19,29,04,,,,,1.69,0.99,1.37*10
$GNGSA,A,3,82,,,,,,,,,,,,1.69,0.99,1.37*1D
$GPGSV,3,1,10,04,10,033,23,05,31,219,,06,46,070,23,09,27,062,*79
$GPGSV,3,2,10,11,76,019,33,12,38,243,28,19,23,133,15,20,71,219,31*77
$GPGSV,3,3,10,25,31,286,21,29,13,310,08*71
$GLGSV,3,1,10,66,05,020,17,67,47,057,21,68,48,139,,69,10,177,21*61
$GLGSV,3,2,10,73,17,249,,74,25,296,,75,08,345,,82,35,085,24*6E
$GLGSV,3,3,10,83,64,027,,84,24,299,*60
$GNGLL,4516.57944,N,07553.05748,W,201441.00,A,A*60
$GNRMC,201442.00,A,4516.57963,N,07553.05762,W,0.759,,180425,,,A*76
$GNVTG,,T,,M,0.759,N,1.407,K,A*34
$GNGGA,201442.00,4516.57963,N,07553.05762,W,1,09,0.99,101.3,M,-34.3,M,,*78
$GNGSA,A,3,11,20,06,12,25,19,29,04,,,,,1.69,0.99,1.37*10
$GNGSA,A,3,82,,,,,,,,,,,,1.69,0.99,1.37*1D
$GPGSV,3,1,10,04,10,033,23,05,31,219,,06,46,070,22,09,27,062,*78
$GPGSV,3,2,10,11,76,019,33,12,38,243,29,19,23,133,14,20,71,219,31*77
$GPGSV,3,3,10,25,31,286,21,29,13,310,08*71
$GLGSV,3,1,10,66,05,020,17,67,47,057,20,68,48,139,,69,10,177,21*60
$GLGSV,3,2,10,73,17,249,,74,25,296,,75,08,345,,82,35,085,24*6E
$GLGSV,3,3,10,83,64,027,,84,24,299,*60
$GNGLL,4516.57963,N,07553.05762,W,201442.00,A,A*6E
$GNRMC,201443.00,A,4516.57974,N,07553.05768,W,0.368,,180425,,,A*7D
$GNVTG,,T,,M,0.368,N,0.682,K,A*3C
$GNGGA,201443.00,4516.57974,N,07553.05768,W,1,09,0.99,101.5,M,-34.3,M,,*73
$GNGSA,A,3,11,20,06,12,25,19,29,04,,,,,1.69,0.99,1.37*10
$GNGSA,A,3,82,,,,,,,,,,,,1.69,0.99,1.37*1D
$GPGSV,3,1,10,04,10,033,23,05,31,219,,06,46,070,22,09,27,062,*78
$GPGSV,3,2,10,11,76,019,33,12,38,243,29,19,23,133,14,20,71,219,31*77
$GPGSV,3,3,10,25,31,286,21,29,13,310,09*70
$GLGSV,3,1,10,66,05,020,18,67,47,057,21,68,48,139,,69,10,177,21*6E
$GLGSV,3,2,10,73,17,249,,74,25,296,,75,08,345,,82,35,085,24*6E
$GLGSV,3,3,10,83,64,027,,84,24,299,*60
$GNGLL,4516.57974,N,07553.05768,W,201443.00,A,A*63
$GNRMC,201444.00,A,4516.57976,N,07553.05768,W,0.101,,180425,,,A*75
$GNVTG,,T,,M,0.101,N,0.187,K,A*33
$GNGGA,201444.00,4516.57976,N,07553.05768,W,1,08,1.07,101.6,M,-34.3,M,,*72
$GNGSA,A,3,11,20,06,12,25,19,04,,,,,,1.83,1.07,1.49*10
$GNGSA,A,3,82,,,,,,,,,,,,1.83,1.07,1.49*16
$GPGSV,3,1,10,04,10,033,23,05,31,219,,06,46,070,22,09,27,062,*78
$GPGSV,3,2,10,11,76,019,33,12,38,243,29,19,23,133,16,20,71,219,31*75
$GPGSV,3,3,10,25,31,286,21,29,13,310,09*70
$GLGSV,3,1,10,66,05,020,18,67,47,057,21,68,48,139,,69,10,177,21*6E
$GLGSV,3,2,10,73,17,249,,74,25,296,,75,08,345,,82,35,085,24*6E
$GLGSV,3,3,10,83,64,027,,84,24,299,*60
$GNGLL,4516.57976,N,07553.05768,W,201444.00,A,A*66
$GNRMC,201445.00,A,4516.57985,N,07553.05778,W,0.318,,180425,,,A*73
$GNVTG,,T,,M,0.318,N,0.589,K,A*33
$GNGGA,201445.00,4516.57985,N,07553.05778,W,1,08,1.07,101.7,M,-34.3,M,,*7F
$GNGSA,A,3,11,20,06,12,25,19,04,,,,,,1.83,1.07,1.49*10
$GNGSA,A,3,82,,,,,,,,,,,,1.83,1.07,1.49*16
$GPGSV,3,1,10,04,10,033,23,05,31,219,,06,46,070,21,09,27,062,*7B
$GPGSV,3,2,10,11,76,019,33,12,38,243,29,19,23,133,16,20,71,219,32*76
$GPGSV,3,3,10,25,31,286,21,29,13,310,09*70
$GLGSV,3,1,10,66,05,020,19,67,47,057,21,68,48,139,,69,10,177,21*6F
$GLGSV,3,2,10,73,17,249,,74,25,296,,75,08,345,,82,35,085,23*69
$GLGSV,3,3,10,83,64,027,,84,24,299,*60
$GNGLL,4516.57985,N,07553.05778,W,201445.00,A,A*6A
$GNRMC,201446.00,A,4516.57973,N,07553.05758,W,0.428,,180425,,,A*7F
$GNVTG,,T,,M,0.428,N,0.792,K,A*3F
$GNGGA,201446.00,4516.57973,N,07553.05758,W,1,08,1.07,101.6,M,-34.3,M,,*76
$GNGSA,A,3,11,20,06,12,25,19,04,,,,,,1.83,1.07,1.49*10
$GNGSA,A,3,82,,,,,,,,,,,,1.83,1.07,1.49*16
$GPGSV,3,1,10,04,10,033,23,05,31,219,,06,46,070,21,09,27,062,*7B
$GPGSV,3,2,10,11,76,019,33,12,38,243,28,19,23,133,16,20,71,219,32*77
$GPGSV,3,3,10,25,31,286,22,29,13,310,09*73
$GLGSV,3,1,10,66,05,020,18,67,47,057,21,68,48,139,,69,10,177,21*6E
$GLGSV,3,2,10,73,17,249,,74,25,296,,75,08,345,,82,35,085,23*69
$GLGSV,3,3,10,83,64,027,,84,24,299,*60
$GNGLL,4516.57973,N,07553.05758,W,201446.00,A,A*62
$GNRMC,201447.00,A,4516.57990,N,07553.05758,W,0.475,,180425,,,A*7B
$GNVTG,,T,,M,0.475,N,0.880,K,A*3B
$GNGGA,201447.00,4516.57990,N,07553.05758,W,1,09,0.99,101.1,M,-34.3,M,,*7A
$GNGSA,A,3,11,20,06,12,25,19,29,04,,,,,1.69,0.99,1.36*11
$GNGSA,A,3,82,,,,,,,,,,,,1.69,0.99,1.36*1C
$GPGSV,3,1,10,04,10,033,23,05,31,219,,06,46,070,20,09,27,062,*7A
$GPGSV,3,2,10,11,76,019,33,12,38,243,29,19,23,133,16,20,71,219,32*76
$GPGSV,3,3,10,25,31,286,21,29,13,310,09*70
$GLGSV,3,1,10,66,05,020,19,67,47,057,21,68,48,139,,69,10,177,20*6E
$GLGSV,3,2,10,73,17,249,,74,25,296,,75,08,345,,82,35,085,24*6E
$GLGSV,3,3,10,83,64,027,,84,24,299,*60
$GNGLL,4516.57990,N,07553.05758,W,201447.00,A,A*6E
$GNRMC,201448.00,A,4516.57980,N,07553.05750,W,0.514,,180425,,,A*7B
$GNVTG,,T,,M,0.514,N,0.951,K,A*30
$GNGGA,201448.00,4516.57980,N,07553.05750,W,1,09,0.99,101.4,M,-34.3,M,,*79
$GNGSA,A,3,11,20,06,12,25,19,29,04,,,,,1.69,0.99,1.36*11
$GNGSA,A,3,82,,,,,,,,,,,,1.69,0.99,1.36*1C
$GPGSV,3,1,10,04,10,033,23,05,31,219,,06,46,070,20,09,27,062,*7A
$GPGSV,3,2,10,11,76,019,33,12,38,243,29,19,23,133,17,20,71,219,31*74
$GPGSV,3,3,10,25,31,286,21,29,13,310,09*70
$GLGSV,3,1,10,66,05,020,19,67,47,057,21,68,48,139,,69,10,177,20*6E
$GLGSV,3,2,10,73,17,249,,74,25,296,,75,08,345,,82,35,085,23*69
$GLGSV,3,3,10,83,64,027,,84,24,299,*60
$GNGLL,4516.57980,N,07553.05750,W,201448.00,A,A*68
$GNRMC,201449.00,A,4516.57997,N,07553.05775,W,0.799,,180425,,,A*7C
$GNVTG,,T,,M,0.799,N,1.480,K,A*37
$GNGGA,201449.00,4516.57997,N,07553.05775,W,1,09,0.99,101.7,M,-34.3,M,,*7A
$GNGSA,A,3,11,20,06,12,25,19,29,04,,,,,1.69,0.99,1.36*11
$GNGSA,A,3,82,,,,,,,,,,,,1.69,0.99,1.36*1C
$GPGSV,3,1,10,04,10,033,23,05,31,219,,06,46,070,21,09,27,062,*7B
$GPGSV,3,2,10,11,76,019,33,12,38,243,29,19,23,133,15,20,71,219,31*76
$GPGSV,3,3,10,25,31,286,22,29,13,310,09*73
$GLGSV,3,1,10,66,05,020,19,67,47,057,21,68,48,139,,69,10,177,20*6E
$GLGSV,3,2,10,73,17,249,,74,25,296,,75,08,345,,82,35,085,23*69
$GLGSV,3,3,10,83,64,027,,84,24,299,*60
$GNGLL,4516.57997,N,07553.05775,W,201449.00,A,A*68
$GNRMC,201450.00,A,4516.57989,N,07553.05766,W,0.173,,180425,,,A*7B
$GNVTG,,T,,M,0.173,N,0.320,K,A*39
$GNGGA,201450.00,4516.57989,N,07553.05766,W,1,08,1.07,101.8,M,-34.3,M,,*77
$GNGSA,A,3,11,20,06,12,25,19,04,,,,,,1.83,1.07,1.49*10
$GNGSA,A,3,82,,,,,,,,,,,,1.83,1.07,1.49*16
$GPGSV,3,1,10,04,10,033,23,05,31,219,,06,46,070,20,09,27,062,*7A
$GPGSV,3,2,10,11,76,019,33,12,38,243,29,19,23,133,15,20,71,219,32*75
$GPGSV,3,3,10,25,31,286,22,29,13,310,08*72
$GLGSV,3,1,10,66,05,020,18,67,47,057,21,68,48,139,,69,10,177,21*6E
$GLGSV,3,2,10,73,17,249,,74,25,296,,75,08,345,,82,35,085,23*69
$GLGSV,3,3,10,83,64,027,,84,24,299,*60
$GNGLL,4516.57989,N,07553.05766,W,201450.00,A,A*6D
$GNRMC,201451.00,A,4516.57954,N,07553.05730,W,1.280,,180425,,,A*77
$GNVTG,,T,,M,1.280,N,2.371,K,A*31
$GNGGA,201451.00,4516.57954,N,07553.05730,W,1,08,1.07,101.9,M,-34.3,M,,*74
$GNGSA,A,3,11,20,06,12,25,19,04,,,,,,1.83,1.07,1.49*10
$GNGSA,A,3,82,,,,,,,,,,,,1.83,1.07,1.49*16
$GPGSV,3,1,10,04,10,033,23,05,31,219,,06,46,070,19,09,27,062,*70
$GPGSV,3,2,10,11,76,019,33,12,38,243,29,19,23,133,16,20,71,219,32*76
$GPGSV,3,3,10,25,31,286,22,29,13,310,08*72
$GLGSV,3,1,10,66,05,020,18,67,46,056,21,68,48,139,,69,10,177,21*6E
$GLGSV,3,2,10,73,17,249,,74,25,296,,75,08,345,,82,35,085,23*69
$GLGSV,3,3,10,83,64,027,,84,24,299,*60
$GNGLL,4516.57954,N,07553.05730,W,201451.00,A,A*6F
$GNRMC,201452.00,A,4516.57943,N,07553.05720,W,0.324,,180425,,,A*7D
$GNVTG,,T,,M,0.324,N,0.600,K,A*3E
$GNGGA,201452.00,4516.57943,N,07553.05720,W,1,08,1.07,102.1,M,-34.3,M,,*7B
$GNGSA,A,3,11,20,06,12,25,19,04,,,,,,1.83,1.07,1.49*10
$GNGSA,A,3,82,,,,,,,,,,,,1.83,1.07,1.49*16
$GPGSV,3,1,10,04,10,033,22,05,31,219,,06,46,070,18,09,27,062,*70
$GPGSV,3,2,10,11,76,019,32,12,38,243,28,19,23,133,17,20,71,219,31*74
$GPGSV,3,3,10,25,31,286,22,29,13,310,08*72
$GLGSV,3,1,10,66,05,020,18,67,46,056,21,68,48,139,,69,10,177,21*6E
$GLGSV,3,2,10,73,17,249,,74,25,296,,75,08,345,,82,35,085,23*69
$GLGSV,3,3,10,83,64,027,,84,24,299,*60
$GNGLL,4516.57943,N,07553.05720,W,201452.00,A,A*6B
$GNRMC,201453.00,A,4516.57930,N,07553.05692,W,0.448,,180425,,,A*7D
$GNVTG,,T,,M,0.448,N,0.831,K,A*3F
$GNGGA,201453.00,4516.57930,N,07553.05692,W,1,08,1.07,101.9,M,-34.3,M,,*7D
$GNGSA,A,3,11,20,06,12,25,19,04,,,,,,1.83,1.07,1.49*10
$GNGSA,A,3,82,,,,,,,,,,,,1.83,1.07,1.49*16
$GPGSV,3,1,10,04,10,033,22,05,31,219,,06,46,070,18,09,27,062,*70
$GPGSV,3,2,10,11,76,019,33,12,38,243,29,19,23,133,17,20,71,219,32*77
$GPGSV,3,3,10,25,31,286,22,29,13,310,*7A
$GLGSV,3,1,10,66,05,020,18,67,46,056,21,68,48,139,,69,10,177,21*6E
$GLGSV,3,2,10,73,17,249,,74,25,296,,75,08,345,,82,35,085,23*69
$GLGSV,3,3,10,83,64,027,,84,24,299,*60
$GNGLL,4516.57930,N,07553.05692,W,201453.00,A,A*66
$GNRMC,201454.00,A,4516.57917,N,07553.05689,W,0.630,,180425,,,A*78
$GNVTG,,T,,M,0.630,N,1.168,K,A*36
$GNGGA,201454.00,4516.57917,N,07553.05689,W,1,08,1.07,102.5,M,-34.3,M,,*7A
$GNGSA,A,3,11,20,06,12,25,19,04,,,,,,1.83,1.07,1.49*10
$GNGSA,A,3,82,,,,,,,,,,,,1.83,1.07,1.49*16
$GPGSV,3,1,10,04,10,033,23,05,31,219,,06,46,070,18,09,27,062,*71
$GPGSV,3,2,10,11,76,019,33,12,38,243,29,19,23,133,17,20,71,219,32*77
$GPGSV,3,3,10,25,31,286,22,29,13,310,*7A
$GLGSV,3,1,10,66,05,020,19,67,46,056,21,68,48,139,,69,10,177,21*6F
$GLGSV,3,2,10,73,17,249,,74,25,296,,75,08,345,,82,35,085,22*68
$GLGSV,3,3,10,83,64,027,,84,24,299,*60
$GNGLL,4516.57917,N,07553.05689,W,201454.00,A,A*6E
$GNRMC,201455.00,A,4516.57909,N,07553.05685,W,0.211,,180425,,,A*7D
$GNVTG,,T,,M,0.211,N,0.390,K,A*35
$GNGGA,201455.00,4516.57909,N,07553.05685,W,1,08,1.07,102.6,M,-34.3,M,,*7B
$GNGSA,A,3,11,20,06,12,25,19,04,,,,,,1.83,1.07,1.49*10
$GNGSA,A,3,82,,,,,,,,,,,,1.83,1.07,1.49*16
$GPGSV,3,1,10,04,10,033,22,05,31,219,,06,46,070,17,09,27,062,*7F
$GPGSV,3,2,10,11,76,019,33,12,38,243,29,19,23,133,18,20,71,219,33*79
$GPGSV,3,3,10,25,31,286,21,29,13,310,*79
$GLGSV,3,1,10,66,05,020,20,67,46,056,21,68,48,139,,69,10,177,22*66
$GLGSV,3,2,10,73,17,249,,74,25,296,,75,08,345,,82,35,085,22*68
$GLGSV,3,3,10,83,64,027,,84,24,299,*60
$GNGLL,4516.57909,N,07553.05685,W,201455.00,A,A*6C
$GNRMC,201456.00,A,4516.57918,N,07553.05701,W,0.818,,180425,,,A*70
$GNVTG,,T,,M,0.818,N,1.515,K,A*3C
$GNGGA,201456.00,4516.57918,N,07553.05701,W,1,08,1.07,102.9,M,-34.3,M,,*7A
$GNGSA,A,3,11,20,06,12,25,19,04,,,,,,1.83,1.07,1.49*10
$GNGSA,A,3,82,,,,,,,,,,,,1.83,1.07,1.49*16
$GPGSV,3,1,10,04,10,033,22,05,31,219,,06,46,070,16,09,27,062,*7E
$GPGSV,3,2,10,11,76,019,33,12,38,243,29,19,23,133,18,20,71,219,33*79
$GPGSV,3,3,10,25,31,286,22,29,13,310,*7A
$GLGSV,3,1,10,66,05,020,19,67,46,056,21,68,48,139,,69,10,177,21*6F
$GLGSV,3,2,10,73,17,249,,74,25,296,,75,08,345,,82,35,085,22*68
$GLGSV,3,3,10,83,64,027,,84,24,299,*60
$GNGLL,4516.57918,N,07553.05701,W,201456.00,A,A*62
$GNRMC,201457.00,A,4516.57904,N,07553.05680,W,0.493,,180425,,,A*7B
$GNVTG,,T,,M,0.493,N,0.913,K,A*38
$GNGGA,201457.00,4516.57904,N,07553.05680,W,1,08,1.07,102.7,M,-34.3,M,,*70
$GNGSA,A,3,11,20,06,12,25,19,04,,,,,,1.83,1.07,1.49*10
$GNGSA,A,3,82,,,,,,,,,,,,1.83,1.07,1.49*16
$GPGSV,3,1,10,04,10,033,22,05,31,219,,06,46,070,15,09,27,062,07*7A
$GPGSV,3,2,10,11,76,019,33,12,38,243,30,19,23,133,18,20,71,219,33*71
$GPGSV,3,3,10,25,31,286,22,29,13,310,*7A
$GLGSV,3,1,10,66,05,020,19,67,46,056,21,68,48,139,,69,10,177,20*6E
$GLGSV,3,2,10,73,17,249,,74,25,296,,75,08,345,,82,35,085,22*68
$GLGSV,3,3,10,83,64,027,,84,24,299,*60
$GNGLL,4516.57904,N,07553.05680,W,201457.00,A,A*66
$GNRMC,201458.00,A,4516.57908,N,07553.05690,W,0.353,,180425,,,A*72
$GNVTG,,T,,M,0.353,N,0.654,K,A*3F
$GNGGA,201458.00,4516.57908,N,07553.05690,W,1,08,1.07,103.1,M,-34.3,M,,*75
$GNGSA,A,3,11,20,06,12,25,19,04,,,,,,1.83,1.07,1.49*10
$GNGSA,A,3,82,,,,,,,,,,,,1.83,1.07,1.49*16
$GPGSV,3,1,10,04,10,033,22,05,31,219,,06,46,070,15,09,27,062,08*75
$GPGSV,3,2,10,11,76,019,33,12,38,243,30,19,23,133,18,20,71,219,33*71
$GPGSV,3,3,10,25,31,286,23,29,13,310,*7B
$GLGSV,3,1,10,66,05,020,19,67,46,056,22,68,48,139,,69,10,177,20*6D
$GLGSV,3,2,10,73,17,249,,74,25,296,,75,08,345,,82,35,085,22*68
$GLGSV,3,3,10,83,64,027,,84,24,299,*60
$GNGLL,4516.57908,N,07553.05690,W,201458.00,A,A*64
$GNRMC,201459.00,A,4516.57919,N,07553.05680,W,0.426,,180425,,,A*77
$GNVTG,,T,,M,0.426,N,0.789,K,A*3B
$GNGGA,201459.00,4516.57919,N,07553.05680,W,1,08,1.07,102.8,M,-34.3,M,,*7D
$GNGSA,A,3,11,20,06,12,25,19,04,,,,,,1.83,1.07,1.49*10
$GNGSA,A,3,82,,,,,,,,,,,,1.83,1.07,1.49*16
$GPGSV,3,1,10,04,10,033,22,05,31,219,,06,46,070,15,09,27,062,12*7E
$GPGSV,3,2,10,11,76,019,33,12,38,243,30,19,23,133,18,20,71,219,33*71
$GPGSV,3,3,10,25,31,286,23,29,13,310,*7B
$GLGSV,3,1,10,66,05,020,19,67,46,056,22,68,48,139,,69,10,177,20*6D
$GLGSV,3,2,10,73,17,249,,74,25,296,,75,09,345,,82,35,085,22*69
$GLGSV,3,3,10,83,64,027,,84,24,299,*60
$GNGLL,4516.57919,N,07553.05680,W,201459.00,A,A*64
$GNRMC,201500.00,A,4516.57921,N,07553.05690,W,0.175,,180425,,,A*73
$GNVTG,,T,,M,0.175,N,0.324,K,A*3B
$GNGGA,201500.00,4516.57921,N,07553.05690,W,1,08,1.06,103.6,M,-34.3,M,,*74
$GNGSA,A,3,11,20,06,12,25,19,04,,,,,,1.83,1.06,1.49*11
$GNGSA,A,3,82,,,,,,,,,,,,1.83,1.06,1.49*17
$GPGSV,3,1,10,04,10,033,22,05,31,219,,06,46,070,15,09,27,062,14*78
$GPGSV,3,2,10,11,76,019,33,12,38,243,30,19,23,133,19,20,71,219,33*70
$GPGSV,3,3,10,25,31,286,23,29,13,310,*7B
$GLGSV,3,1,10,66,05,020,19,67,46,056,22,68,48,139,,69,10,177,21*6C
$GLGSV,3,2,10,73,17,249,,74,25,296,,75,09,345,,82,35,085,22*69
$GLGSV,3,3,10,83,64,027,,84,24,299,*60
$GNGLL,4516.57921,N,07553.05690,W,201500.00,A,A*63
$GNRMC,201501.00,A,4516.57920,N,07553.05684,W,0.073,,180425,,,A*71
$GNVTG,,T,,M,0.073,N,0.136,K,A*3D
$GNGGA,201501.00,4516.57920,N,07553.05684,W,1,09,1.04,103.8,M,-34.3,M,,*7C
$GNGSA,A,3,11,20,06,12,25,09,19,04,,,,,1.81,1.04,1.49*18
$GNGSA,A,3,82,,,,,,,,,,,,1.81,1.04,1.49*17
$GPGSV,3,1,10,04,10,033,22,05,31,219,,06,46,070,14,09,27,062,16*7B
$GPGSV,3,2,10,11,76,019,33,12,38,243,30,19,23,133,19,20,71,219,33*70
$GPGSV,3,3,10,25,31,286,23,29,13,310,*7B
$GLGSV,3,1,10,66,05,020,20,67,46,056,22,68,48,139,,69,10,177,21*66
$GLGSV,3,2,10,73,17,249,,74,25,296,,75,09,345,,82,35,085,22*69
$GLGSV,3,3,10,83,64,027,,84,24,299,*60
$GNGLL,4516.57920,N,07553.05684,W,201501.00,A,A*66
$GNRMC,201502.00,A,4516.57923,N,07553.05681,W,0.078,,180425,,,A*7F
$GNVTG,,T,,M,0.078,N,0.144,K,A*33
$GNGGA,201502.00,4516.57923,N,07553.05681,W,1,09,1.04,103.9,M,-34.3,M,,*78
$GNGSA,A,3,11,20,06,12,25,09,19,04,,,,,1.81,1.04,1.49*18
$GNGSA,A,3,82,,,,,,,,,,,,1.81,1.04,1.49*17
$GPGSV,3,1,10,04,10,033,22,05,31,219,,06,46,070,13,09,27,062,16*7C
$GPGSV,3,2,10,11,76,019,33,12,38,243,30,19,23,133,18,20,71,219,33*71
$GPGSV,3,3,10,25,31,286,23,29,13,310,13*79
$GLGSV,3,1,10,66,05,020,20,67,46,056,22,68,48,139,,69,10,177,21*66
$GLGSV,3,2,10,73,17,249,,74,25,296,,75,09,345,,82,35,085,21*6A
$GLGSV,3,3,10,83,64,027,,84,24,299,*60
$GNGLL,4516.57923,N,07553.05681,W,201502.00,A,A*63
$GNRMC,201503.00,A,4516.57936,N,07553.05707,W,0.584,,180425,,,A*73
$GNVTG,,T,,M,0.584,N,1.082,K,A*3F
$GNGGA,201503.00,4516.57936,N,07553.05707,W,1,09,1.04,104.4,M,-34.3,M,,*78
$GNGSA,A,3,11,20,06,12,25,09,19,04,,,,,1.81,1.04,1.48*19
$GNGSA,A,3,82,,,,,,,,,,,,1.81,1.04,1.48*16
$GPGSV,3,1,10,04,10,033,22,05,31,219,,06,46,070,12,09,27,062,17*7C
$GPGSV,3,2,10,11,76,019,33,12,38,243,30,19,23,133,18,20,71,219,33*71
$GPGSV,3,3,10,25,31,286,23,29,13,310,13*79
$GLGSV,3,1,10,66,05,020,20,67,46,056,22,68,48,139,,69,10,177,21*66
$GLGSV,3,2,10,73,17,249,,74,25,296,,75,09,345,,82,35,085,22*69
$GLGSV,3,3,10,83,64,027,,84,24,299,*60
$GNGLL,4516.57936,N,07553.05707,W,201503.00,A,A*69
$GNRMC,201504.00,A,4516.57935,N,07553.05718,W,0.301,,180425,,,A*72
$GNVTG,,T,,M,0.301,N,0.558,K,A*37
$GNGGA,201504.00,4516.57935,N,07553.05718,W,1,09,1.04,104.9,M,-34.3,M,,*7F
$GNGSA,A,3,11,20,06,12,25,09,19,04,,,,,1.81,1.04,1.48*19
$GNGSA,A,3,82,,,,,,,,,,,,1.81,1.04,1.48*16
$GPGSV,3,1,10,04,10,033,22,05,31,219,,06,46,070,11,09,27,062,17*7F
$GPGSV,3,2,10,11,76,019,33,12,38,243,29,19,23,133,17,20,71,219,33*76
$GPGSV,3,3,10,25,31,286,23,29,13,310,13*79
$GLGSV,3,1,10,66,05,020,20,67,46,056,21,68,48,139,,69,10,177,20*64
$GLGSV,3,2,10,73,17,249,,74,25,296,,75,09,345,,82,35,085,22*69
$GLGSV,3,3,10,83,64,027,,84,24,299,*60
$GNGLL,4516.57935,N,07553.05718,W,201504.00,A,A*63
$GNRMC,201505.00,A,4516.57930,N,07553.05705,W,0.191,,180425,,,A*71
$GNVTG,,T,,M,0.191,N,0.353,K,A*31
$GNGGA,201505.00,4516.57930,N,07553.05705,W,1,09,1.04,104.8,M,-34.3,M,,*76
$GNGSA,A,3,11,20,06,12,25,09,19,04,,,,,1.81,1.04,1.48*19
$GNGSA,A,3,82,,,,,,,,,,,,1.81,1.04,1.48*16
$GPGSV,3,1,10,04,10,033,21,05,31,219,,06,46,070,10,09,27,062,18*72
$GPGSV,3,2,10,11,76,019,33,12,38,243,29,19,23,133,17,20,71,219,33*76
$GPGSV,3,3,10,25,31,286,23,29,13,310,14*7E
$GLGSV,3,1,10,66,05,020,20,67,46,056,21,68,48,139,,69,10,177,21*65
$GLGSV,3,2,10,73,17,249,,74,25,296,,75,09,345,,82,35,085,22*69
$GLGSV,3,3,10,83,64,027,,84,24,299,*60
$GNGLL,4516.57930,N,07553.05705,W,201505.00,A,A*6B
$GNRMC,201506.00,A,4516.57925,N,07553.05693,W,0.192,,180425,,,A*7B
$GNVTG,,T,,M,0.192,N,0.356,K,A*37
$GNGGA,201506.00,4516.57925,N,07553.05693,W,1,10,1.04,104.9,M,-34.3,M,,*76
$GNGSA,A,3,11,20,06,12,25,09,19,29,04,,,,1.81,1.04,1.48*12
$GNGSA,A,3,82,,,,,,,,,,,,1.81,1.04,1.48*16
$GPGSV,3,1,10,04,10,033,22,05,31,219,,06,46,070,10,09,27,062,19*70
$GPGSV,3,2,10,11,76,019,33,12,38,243,29,19,23,133,18,20,71,219,33*79
$GPGSV,3,3,10,25,31,286,23,29,13,310,15*7F
$GLGSV,3,1,10,66,05,020,20,67,46,056,21,68,48,139,,69,10,177,20*64
$GLGSV,3,2,10,73,17,249,,74,25,296,,75,09,345,,82,35,085,23*68
$GLGSV,3,3,10,83,64,027,,84,24,299,*60
$GNGLL,4516.57925,N,07553.05693,W,201506.00,A,A*62
$GNRMC,201507.00,A,4516.57946,N,07553.05711,W,0.901,,180425,,,A*76
$GNVTG,,T,,M,0.901,N,1.669,K,A*3D
$GNGGA,201507.00,4516.57946,N,07553.05711,W,1,10,1.04,104.9,M,-34.3,M,,*79
$GNGSA,A,3,11,20,06,12,25,09,19,29,04,,,,1.81,1.04,1.48*12
$GNGSA,A,3,82,,,,,,,,,,,,1.81,1.04,1.48*16
$GPGSV,3,1,10,04,10,033,21,05,31,219,,06,46,070,11,09,27,062,19*72
$GPGSV,3,2,10,11,76,019,33,12,38,243,29,19,23,133,18,20,71,219,33*79
$GPGSV,3,3,10,25,31,286,23,29,13,310,15*7F
$GLGSV,3,1,10,66,05,020,20,67,46,056,21,68,48,139,,69,10,177,20*64
$GLGSV,3,2,10,73,17,249,,74,25,296,,75,09,345,,82,35,085,22*69
$GLGSV,3,3,10,83,64,028,,84,24,299,*6F
$GNGLL,4516.57946,N,07553.05711,W,201507.00,A,A*6D
$GNRMC,201508.00,A,4516.57956,N,07553.05737,W,0.393,,180425,,,A*7D
$GNVTG,,T,,M,0.393,N,0.728,K,A*39
$GNGGA,201508.00,4516.57956,N,07553.05737,W,1,10,1.04,105.5,M,-34.3,M,,*7E
$GNGSA,A,3,11,20,06,12,25,09,19,29,04,,,,1.81,1.04,1.48*12
$GNGSA,A,3,82,,,,,,,,,,,,1.81,1.04,1.48*16
$GPGSV,3,1,10,04,10,033,21,05,31,219,,06,46,070,14,09,27,062,19*77
$GPGSV,3,2,10,11,76,019,33,12,38,243,29,19,23,133,17,20,71,219,33*76
$GPGSV,3,3,10,25,31,286,23,29,13,310,16*7C
$GLGSV,3,1,10,66,05,020,20,67,46,056,21,68,48,139,,69,10,177,20*64
$GLGSV,3,2,10,73,17,249,,74,25,296,,75,09,345,,82,35,085,23*68
$GLGSV,3,3,10,83,64,028,,84,24,300,*6E
$GNGLL,4516.57956,N,07553.05737,W,201508.00,A,A*67
$GNRMC,201509.00,A,4516.57955,N,07553.05729,W,0.329,,180425,,,A*71
$GNVTG,,T,,M,0.329,N,0.608,K,A*3B
$GNGGA,201509.00,4516.57955,N,07553.05729,W,1,10,1.04,105.4,M,-34.3,M,,*72
$GNGSA,A,3,11,20,06,12,25,09,19,29,04,,,,1.81,1.04,1.48*12
$GNGSA,A,3,82,,,,,,,,,,,,1.81,1.04,1.48*16
$GPGSV,3,1,10,04,10,033,22,05,31,219,,06,46,070,14,09,27,062,19*74
$GPGSV,3,2,10,11,76,019,34,12,38,243,29,19,23,133,17,20,71,219,33*71
$GPGSV,3,3,10,25,31,286,23,29,13,310,16*7C
$GLGSV,3,1,10,66,05,020,20,67,46,056,21,68,48,139,,69,10,177,20*64
$GLGSV,3,2,10,73,17,249,,74,25,296,,75,09,345,,82,35,085,22*69
$GLGSV,3,3,10,83,64,028,,84,24,300,*6E
$GNGLL,4516.57955,N,07553.05729,W,201509.00,A,A*6A
$GNRMC,201510.00,A,4516.57954,N,07553.05727,W,0.157,,180425,,,A*7D
$GNVTG,,T,,M,0.157,N,0.290,K,A*35
$GNGGA,201510.00,4516.57954,N,07553.05727,W,1,10,1.04,105.4,M,-34.3,M,,*75
$GNGSA,A,3,11,20,06,12,25,09,19,29,04,,,,1.81,1.04,1.48*12
$GNGSA,A,3,82,,,,,,,,,,,,1.81,1.04,1.48*16
$GPGSV,3,1,10,04,10,033,22,05,31,219,,06,46,070,14,09,27,062,20*7E
$GPGSV,3,2,10,11,76,019,33,12,38,243,30,19,23,133,18,20,71,219,33*71
$GPGSV,3,3,10,25,31,286,23,29,13,310,16*7C
$GLGSV,3,1,10,66,05,020,20,67,46,056,21,68,48,139,,69,10,177,20*64
$GLGSV,3,2,10,73,17,249,,74,25,296,,75,09,345,,82,35,085,23*68
$GLGSV,3,3,10,83,64,028,,84,24,300,*6E
$GNGLL,4516.57954,N,07553.05727,W,201510.00,A,A*6D
$GNRMC,201511.00,A,4516.57947,N,07553.05701,W,0.302,,180425,,,A*78
$GNVTG,,T,,M,0.302,N,0.560,K,A*3F
$GNGGA,201511.00,4516.57947,N,07553.05701,W,1,10,1.04,104.9,M,-34.3,M,,*7E
$GNGSA,A,3,11,20,06,12,25,09,19,29,04,,,,1.81,1.04,1.48*12
$GNGSA,A,3,82,,,,,,,,,,,,1.81,1.04,1.48*16
$GPGSV,3,1,10,04,10,033,21,05,31,219,,06,46,070,14,09,27,062,20*7D
$GPGSV,3,2,10,11,76,019,33,12,38,243,30,19,23,133,18,20,71,219,33*71
$GPGSV,3,3,10,25,31,286,23,29,13,310,15*7F
$GLGSV,3,1,10,66,05,020,20,67,46,056,21,68,48,139,,69,10,177,19*6E
$GLGSV,3,2,10,73,17,249,,74,25,296,,75,09,345,,82,35,085,22*69
$GLGSV,3,3,10,83,64,028,,84,24,300,*6E
$GNGLL,4516.57947,N,07553.05701,W,201511.00,A,A*6A
$GNRMC,201512.00,A,4516.57959,N,07553.05699,W,0.573,,180425,,,A*74
$GNVTG,,T,,M,0.573,N,1.061,K,A*3A
$GNGGA,201512.00,4516.57959,N,07553.05699,W,1,10,1.04,104.3,M,-34.3,M,,*78
$GNGSA,A,3,11,20,06,12,25,09,19,29,04,,,,1.81,1.04,1.48*12
$GNGSA,A,3,82,,,,,,,,,,,,1.81,1.04,1.48*16
$GPGSV,3,1,10,04,10,033,21,05,31,219,,06,46,070,14,09,27,062,20*7D
$GPGSV,3,2,10,11,76,019,33,12,38,243,30,19,23,133,18,20,71,219,33*71
$GPGSV,3,3,10,25,31,286,23,29,13,310,15*7F
$GLGSV,3,1,10,66,05,020,20,67,46,056,21,68,48,139,,69,10,177,19*6E
$GLGSV,3,2,10,73,17,249,,74,25,296,,75,09,345,,82,35,085,22*69
$GLGSV,3,3,10,83,64,028,,84,24,300,*6E
$GNGLL,4516.57959,N,07553.05699,W,201512.00,A,A*66
$GNRMC,201513.00,A,4516.57987,N,07553.05728,W,1.119,,180425,,,A*74
$GNVTG,,T,,M,1.119,N,2.072,K,A*32
$GNGGA,201513.00,4516.57987,N,07553.05728,W,1,10,1.04,104.5,M,-34.3,M,,*77
$GNGSA,A,3,11,20,06,12,25,09,19,29,04,,,,1.81,1.04,1.48*12
$GNGSA,A,3,82,,,,,,,,,,,,1.81,1.04,1.48*16
$GPGSV,3,1,10,04,10,033,20,05,31,219,,06,46,070,16,09,27,062,20*7E
$GPGSV,3,2,10,11,76,019,33,12,38,243,29,19,23,133,18,20,71,219,33*79
$GPGSV,3,3,10,25,31,286,23,29,13,310,15*7F
$GLGSV,3,1,10,66,05,020,20,67,46,056,22,68,48,139,,69,10,177,20*67
$GLGSV,3,2,10,73,17,249,,74,25,296,,75,09,345,,82,35,085,22*69
$GLGSV,3,3,10,83,64,028,,84,24,300,*6E
$GNGLL,4516.57987,N,07553.05728,W,201513.00,A,A*6F
$GNRMC,201514.00,A,4516.57995,N,07553.05739,W,0.376,,180425,,,A*7A
$GNVTG,,T,,M,0.376,N,0.697,K,A*37
$GNGGA,201514.00,4516.57995,N,07553.05739,W,1,10,1.04,104.5,M,-34.3,M,,*73
$GNGSA,A,3,11,20,06,12,25,09,19,29,04,,,,1.81,1.04,1.48*12
$GNGSA,A,3,82,,,,,,,,,,,,1.81,1.04,1.48*16
$GPGSV,3,1,10,04,10,033,20,05,31,219,,06,46,070,20,09,27,062,20*7B
